orig_order,id,establishment_id,phone,latitude,longitude,formatted_address,address_fs,name,name_fs_search,fs_id,checkinsCount,createdat,days,avg_checkins,avg_checkins_round,avg_visitsCount,avg_visitsCount_round,rating,priceTier,brand_name,yelp_id,exit_mapping/exit_id,exit_latitude,exit_longitude,destination_latitude,destination_longitude,exit_mapping/distance,exit_mapping/cardinal_direction_short,exit_mapping/cardinal_direction_long,exit_mapping/turn_direction_short,exit_mapping/turn_direction_long,amenities/0/id,amenities/0/name,amenities/0/priority,amenities/0/image_prefix,top_priority_amenity/id,top_priority_amenity/name,top_priority_amenity/priority,top_priority_amenity/image_prefix,logo/id,ll,phone_str,visitsCount
2,814424,121,1-610-913-0924,40.155956,-75.864907,"700 Crossings Blvd, Elverson, PA 19543",,Arbys,Arby's,4bc7353815a7ef3b0fe778da,457,1271346488,2988.145197,15.2937682,,26.43780499,,6.6,1,Arbys,arbys-elverson,35181,40.162059,-75.882594,40.164116,-75.88174,1.06,SE,Southeast,R,Right,4,Fast Food,1,FastFood,4,Fast Food,1,FastFood,790,"40.155956,-75.86490699999999",6109130924,790
6,408,283,1-610-913-1150,40.153452,-75.864261,"214 Crossing Boulevard, Elverson, PA 19520",,Subway,Subway,4c293c5ace3fc928287c6e88,326,1277770842,2913.789248,11.18818049,,13.83078753,,5.9,1,Subway,subway-elverson-2,35181,40.162059,-75.882594,40.164116,-75.88174,1.17,SE,Southeast,R,Right,4,Fast Food,1,FastFood,4,Fast Food,1,FastFood,3206,"40.153452,-75.864261",6109131150,403
7,489010,167,1-610-286-3610,40.15576,-75.86291,"850 Crossings Boulevard, Morgantown, PA 19520",,Sonic,SONIC Drive In,4b4d07f8f964a52090c826e3,1208,1263339512,3080.81853,39.21035881,,54.33620915,,7.1,1,Sonic,sonic-morgantown,35181,40.162059,-75.882594,40.164116,-75.88174,1.17,SE,Southeast,R,Right,4,Fast Food,1,FastFood,4,Fast Food,1,FastFood,789,"40.15576,-75.86291",6102863610,1674
19,201509,153,1-610-286-0220,40.157941,-75.891342,"6176 Morgantown Rd, Morgantown, PA 19543",,McDonalds,McDonald's,4b913c72f964a52027ac33e3,967,1267809394,3029.083785,31.92384459,,72.1340232,,5.6,1,McDonalds,mcdonalds-morgantown-9,35182,40.164144,-75.883037,40.164039,-75.88306,0.38,SW,Southwest,L,Left,4,Fast Food,1,FastFood,4,Fast Food,1,FastFood,771,"40.157940999999994,-75.89134200000001",6102860220,2185
28,191767,127,1-610-286-0014,40.152382,-75.899294,"2850 West Main St, Morgantown, PA 19543-9477",,Burger King,Burger King,5603402e498ec1937227e216,63,1443053614,1000.794201,6.295000502,,22.88182722,,6,1,Burger King,burger-king-morgantown-7,35182,40.164144,-75.883037,40.164039,-75.88306,0.73,SW,Southwest,L,Left,4,Fast Food,1,FastFood,4,Fast Food,1,FastFood,779,"40.152382,-75.899294",6102860014,229
43,306031,283,1-610-898-9299,40.269169,-75.919502,"100 Love Road, Reading, PA 19607",,Subway,Subway,4c4250c0d7fad13a100109da,346,1279414464,2894.765845,11.95260752,,17.96345639,,7.5,1,Subway,subway-reading-9,35183,40.251396,-75.913569,40.253204,-75.91209,1.33,NW,Northwest,L,Left,4,Fast Food,1,FastFood,4,Fast Food,1,FastFood,3206,"40.269169,-75.91950200000001",6108989299,520
69,306104,283,1-610-370-5230,40.328563,-75.892331,"2237 Howard Blvd, Reading, PA 19606",,Subway,Subway,4cd201425b5ca35d33fc84f0,210,1288831298,2785.774711,7.538298025,,11.98948353,,6.9,1,Subway,subway-reading-16,35184,40.293949,-75.902201,40.297806,-75.899969,1.34,N,North,L,Left,4,Fast Food,1,FastFood,4,Fast Food,1,FastFood,3206,"40.328563,-75.892331",6103705230,334
73,242073,153,1-610-779-9929,40.327315,-75.88101,"2730 Perkiomen Ave, Saint Lawrence, PA 19606",,McDonalds,McDonald's,4c1fa0a7920076b0220bc5e9,878,1277141159,2921.077245,30.05740438,,61.99767578,,5.3,1,McDonalds,mcdonalds-reading-4,35184,40.293949,-75.902201,40.297806,-75.899969,1.41,NE,Northeast,R,Right,4,Fast Food,1,FastFood,4,Fast Food,1,FastFood,771,"40.327315000000006,-75.88101",6107799929,1811
77,191793,127,1-610-779-5388,40.303516,-75.856314,"4890 Perkiomen Avenue, Reading, PA 19606-9461",,Burger King,Burger King,4bda059ac79cc9285d177de9,552,1272579482,2973.874433,18.5616445,,31.94485919,,5.2,1,Burger King,burger-king-reading-10,35184,40.293949,-75.902201,40.297806,-75.899969,1.45,E,East,R,Right,4,Fast Food,1,FastFood,4,Fast Food,1,FastFood,779,"40.303515999999995,-75.856314",6107795388,950
80,814526,121,1-610-779-7055,40.303952,-75.855259,"4901 Perkiomen Ave, Reading, PA 19606",,Arbys,Arby's,4b9fb654f964a5206e3737e3,614,1268758100,3018.103391,20.34390213,,32.10625596,,7.4,1,Arbys,arbys-reading-5,35184,40.293949,-75.902201,40.297806,-75.899969,1.49,E,East,R,Right,4,Fast Food,1,FastFood,4,Fast Food,1,FastFood,790,"40.303952,-75.855259",6107797055,969
81,200544,153,1-610-374-3095,40.320688,-75.934402,"400 Lancaster Ave, Reading, PA 19602",,McDonalds,McDonald's,4ba2a76af964a520f90c38e3,1394,1268950890,3015.872025,46.22212044,,84.8510805,,6.1,1,McDonalds,mcdonalds-reading-17,35184,40.293949,-75.902201,40.297806,-75.899969,1.49,NW,Northwest,L,Left,4,Fast Food,1,FastFood,4,Fast Food,1,FastFood,771,"40.320688,-75.934402",6103743095,2559
90,291887,173,1-610-775-3020,40.314636,-75.94191,"930 Lancaster Ave, Reading, PA 19607",,Wendys,Wendy's,4bc63dfbbf29c9b68a81f92a,489,1271283195,2988.877755,16.36065574,,31.28264442,,6.1,1,Wendys,wendys-reading-3,35184,40.293949,-75.902201,40.297806,-75.899969,1.55,W,West,L,Left,4,Fast Food,1,FastFood,4,Fast Food,1,FastFood,782,"40.314636,-75.94191",6107753020,935
103,242043,153,1-610-582-5556,40.298552,-75.84765,"5370 Perkiomen Avenue, Reading, PA 19606-9530",,McDonalds,McDonald's,4baca409f964a52024003be3,1078,1269605385,3008.296852,35.83422957,,61.09769383,,5.5,1,McDonalds,mcdonalds-reading-13,35184,40.293949,-75.902201,40.297806,-75.899969,1.71,E,East,R,Right,4,Fast Food,1,FastFood,4,Fast Food,1,FastFood,771,"40.298552,-75.84765",6105825556,1838
108,128863,173,1-610-779-3257,40.299034,-75.845616,"5411 Perkiomen Ave, Reading, PA 19606",,Wendys,Wendy's,4bab8dc4f964a52017b33ae3,345,1269534148,3009.121354,11.4651408,,13.49231062,,5.5,1,Wendys,wendys-reading-4,35184,40.293949,-75.902201,40.297806,-75.899969,1.78,E,East,R,Right,4,Fast Food,1,FastFood,4,Fast Food,1,FastFood,782,"40.299034000000006,-75.845616",6107793257,406
114,306069,283,1-610-582-1515,40.295826,-75.84451,"5506 Perkiomen Ave, Reading, PA 19606",,Subway,Subway,4bb609d12f70c9b67cc78430,398,1270221265,3001.168611,13.26150082,,13.32814153,,6.9,1,Subway,subway-reading-12,35184,40.293949,-75.902201,40.297806,-75.899969,1.82,E,East,R,Right,4,Fast Food,1,FastFood,4,Fast Food,1,FastFood,3206,"40.295826,-75.84451",6105821515,400
117,306113,283,1-610-374-9290,40.335672,-75.926172,"549 Penn St, Reading, PA 19601",,Subway,SUBWAY,4c72a1d013228cfa48892b65,114,1282580944,2858.116771,3.988640393,,5.738044074,,6.6,1,Subway,subway-reading,35184,40.293949,-75.902201,40.297806,-75.899969,1.84,NW,Northwest,L,Left,4,Fast Food,1,FastFood,4,Fast Food,1,FastFood,3206,"40.335671999999995,-75.926172",6103749290,164
128,306085,283,1-610-750-7422,40.307047,-75.956832,"518 East Lancaster Avenue, Reading, PA 19607",,Subway,SUBWAY,4be47c8ebcef2d7fb09f02e5,271,1273265294,2965.936794,9.137079406,,11.12633286,,6.8,1,Subway,subway-shillington,35184,40.293949,-75.902201,40.297806,-75.899969,1.9,W,West,L,Left,4,Fast Food,1,FastFood,4,Fast Food,1,FastFood,3206,"40.307047,-75.95683199999999",6107507422,330
132,199130,151,1-610-582-9211,40.296174,-75.840475,"5800 Perkiomen Avenue, Reading, PA 19606",,KFC,KFC/Taco Bell,4b636f44f964a52092792ae3,683,1264807748,3063.825058,22.29239552,,40.37436788,,5.7,1,KFC,kfc-reading-11,35184,40.293949,-75.902201,40.297806,-75.899969,1.95,E,East,R,Right,4,Fast Food,1,FastFood,4,Fast Food,1,FastFood,786,"40.296174,-75.840475",6105829211,1237
142,489360,167,1-610-779-9200,40.30815,-75.86236,"4515 Perkiomen Avenue, Reading, PA 19606",,Sonic,SONICí__í_í_í__ŒëŒÇ__í__í_í_í__ŒëŒÇ_í__í_í_Œëíçí__í__í_í_í__ŒëŒ¢í__í_í_Œëíçí__í__í_í__í__í_í_í__ŒëŒÇí__í_í_Œëíç_í__í_í_Œëíçí__í__í_í__í__í_í_Œëíçí__Œëíç_í__ŒëŒçí__í_í_í__ŒëŒÇ__í__í_í_í__ŒëŒÇ_í__í_í_Œëíçí__í__í_í_í__ŒëŒ¢í__í_í_í__ŒëŒÇ__í__í_í_Œëíçí__í__í_í__í__í_í_í__ŒëŒÇŒëíç_ŒëíçŒëŒ¢_Driveí__í_í_í__ŒëŒÇ__í__í_í_í__ŒëŒÇ_í__í_í_Œëíçí__í__í_í_í__ŒëŒ¢í__í_í_Œëíçí__í__í_í__í__í_í_í__ŒëŒÇí__í_í_Œëíç_í__í_í_Œëíçí__í__í_í__í__í_í_Œëíçí__Œëíç_í__ŒëŒçí__í_í_í__ŒëŒÇ__í__í_í_í__ŒëŒÇ_í__í_í_Œëíçí__í__í_í_í__ŒëŒ¢í__í_í_í__ŒëŒÇ__í__í_í_Œëíçí__í__í_í__í__í_í_í__ŒëŒÇŒëíç_ŒëíçŒëŒ¢_In,4b899b0df964a520944532e3,2024,1267309325,3034.87162,66.69145365,,85.44018741,,7,2,Sonic,sonic-drive-in-reading,35184,40.293949,-75.902201,40.297806,-75.899969,2.11,E,East,R,Right,4,Fast Food,1,FastFood,4,Fast Food,1,FastFood,789,"40.30815,-75.86236",6107799200,2593
149,440896,141,1-610-779-2001,40.30623,-75.86049,"4619 Perkiomen Ave, Reading, PA 19606",,Five Guys Burgers,Fiveí__í_í_í__ŒëŒÇ__í__í_í_í__ŒëŒÇ_í__í_í_Œëíçí__í__í_í_í__ŒëŒ¢í__í_í_Œëíçí__í__í_í__í__í_í_í__ŒëŒÇí__í_í_Œëíç_í__í_í_Œëíçí__í__í_í__í__í_í_Œëíçí__Œëíç_í__ŒëŒçí__í_í_í__ŒëŒÇ__í__í_í_í__ŒëŒÇ_í__í_í_Œëíçí__í__í_í_í__ŒëŒ¢í__í_í_í__ŒëŒÇ__í__í_í_Œëíçí__í__í_í__í__í_í_í__ŒëŒÇŒëíç_ŒëíçŒëŒ¢_Guys,4b3cd761f964a5201a8825e3,1216,1262278497,3093.098796,39.31332557,,50.91980902,,7.5,2,Five Guys Burgers,five-guys-reading-3,35184,40.293949,-75.902201,40.297806,-75.899969,2.16,E,East,R,Right,4,Fast Food,1,FastFood,4,Fast Food,1,FastFood,818,"40.30623,-75.86049",6107792001,1575
159,1172235,130,1-610-779-5995,40.306764,-75.859228,"4675 Perkiomen Ave, Reading, PA 19606",,Chick-Fil-A,Chick-fil-A,4bb33fa62397b71386d737b3,2412,1270038438,3003.284664,80.31206727,,131.2895859,,7.9,1,Chick-Fil-A,chick-fil-a-reading-2,35184,40.293949,-75.902201,40.297806,-75.899969,2.23,E,East,R,Right,4,Fast Food,1,FastFood,4,Fast Food,1,FastFood,796,"40.306764,-75.859228",6107795995,3943
160,306114,283,1-484-709-2198,40.335448,-75.947481,"450 Penn Ave, West Reading, PA 19611",,Subway,SUBWAY,5106b53be4b0f083c1d00683,119,1359394107,1969.075532,6.043445162,,8.531922582,,7,1,Subway,a,35184,40.293949,-75.902201,40.297806,-75.899969,2.24,NW,Northwest,L,Left,4,Fast Food,1,FastFood,4,Fast Food,1,FastFood,3206,"40.335448,-75.94748100000001",4847092198,168
182,411461,158,1-610-370-9300,40.3278,-75.8802,"2850 Saint Lawrence Ave, Reading, PA 19606-2232",,Papa Johns Pizza,Papaí__í_í_í__ŒëŒÇ__í__í_í_í__ŒëŒÇ_í__í_í_Œëíçí__í__í_í_í__ŒëŒ¢í__í_í_Œëíçí__í__í_í__í__í_í_í__ŒëŒÇí__í_í_Œëíç_í__í_í_Œëíçí__í__í_í__í__í_í_Œëíçí__Œëíç_í__ŒëŒçí__í_í_í__ŒëŒÇ__í__í_í_í__ŒëŒÇ_í__í_í_Œëíçí__í__í_í_í__ŒëŒ¢í__í_í_í__ŒëŒÇ__í__í_í_Œëíçí__í__í_í__í__í_í_í__ŒëŒÇŒëíç_ŒëíçŒëŒ¢_John'sí__í_í_í__ŒëŒÇ__í__í_í_í__ŒëŒÇ_í__í_í_Œëíçí__í__í_í_í__ŒëŒ¢í__í_í_Œëíçí__í__í_í__í__í_í_í__ŒëŒÇí__í_í_Œëíç_í__í_í_Œëíçí__í__í_í__í__í_í_Œëíçí__Œëíç_í__ŒëŒçí__í_í_í__ŒëŒÇ__í__í_í_í__ŒëŒÇ_í__í_í_Œëíçí__í__í_í_í__ŒëŒ¢í__í_í_í__ŒëŒÇ__í__í_í_Œëíçí__í__í_í__í__í_í_í__ŒëŒÇŒëíç_ŒëíçŒëŒ¢_Pizza,4d86837cf1e56ea8d47f9f8a,60,1300661116,2648.855521,2.265129205,,2.416137819,,6.6,1,Papa Johns Pizza,papa-johns-pizza-reading,35184,40.293949,-75.902201,40.297806,-75.899969,2.32,NE,Northeast,R,Right,4,Fast Food,1,FastFood,4,Fast Food,1,FastFood,791,"40.3278,-75.8802",6103709300,64
185,286452,153,1-610-372-0465,40.350644,-75.919376,"1001 N. 9th Street, Reading, PA 19604",,McDonalds,McDonald's,4c6eb84d4d24b60c4480d9d8,418,1282324557,2861.084213,14.60984609,,47.28976497,,6.6,1,McDonalds,mcdonalds-reading-9,35184,40.293949,-75.902201,40.297806,-75.899969,2.35,N,North,L,Left,4,Fast Food,1,FastFood,4,Fast Food,1,FastFood,771,"40.350644,-75.919376",6103720465,1353
197,201372,153,1-610-372-2298,40.336627,-75.954132,"8th & Hill Ave, Wyomissing, PA 19610",,McDonalds,McDonald_í__í_í_í__ŒëŒÇ__í__í_í_í__ŒëŒÇ_í__í_í_Œëíçí__í__í_í_í__ŒëŒ¢í__í_í_Œëíçí__í__í_í__í__í_í_í__ŒëŒÇí__í_í_Œëíç_í__í_í_Œëíçí__í__í_í__í__í_í_Œëíçí__Œëíç_í__ŒëŒçí__í_í_í__ŒëŒÇ__í__í_í_í__ŒëŒÇ_í__í_í_Œëíçí__í__í_í_í__ŒëŒ¢í__í_í_Œëíçí__í__í_í__í__í_í_í__ŒëŒÇí__í_í_Œëíç_í__í_í_Œëíçí__í__í_í__í__í_í_Œëíçí__Œëíç_í__ŒëŒ¢í__í_í_í__ŒëŒÇ__í__í_í_í__ŒëŒÇ_í__í_í_Œëíçí__í__í_í_í__ŒëŒ¢í__í_í_Œëíçí__í__í_í__í__í_í_í__ŒëŒÇí__í_í_Œëíç_í__í_í_Œëíçí__í__í_í__í__í_í_Œëíçí__Œëíç_í__ŒëŒçí__í_í_í__ŒëŒÇ__í__í_í_í__ŒëŒÇ_í__í_í_Œëíçí__í__í_í_í__ŒëŒ¢í__í_í_Œëíçí__í__í_í__í__í_í_í__ŒëŒÇí__í_í_Œëíç_í__í_í_Œëíçí__í__í_í__í__í_í_Œëíçí__Œëíç_í__ŒëŒ±_s,4c1a254c4ff90f4752f11049,1731,1276781900,2925.235336,59.17472618,,128.1264435,,5.7,1,McDonalds,mcdonalds-reading-11,35184,40.293949,-75.902201,40.297806,-75.899969,2.43,NW,Northwest,L,Left,4,Fast Food,1,FastFood,4,Fast Food,1,FastFood,771,"40.336627,-75.954132",6103722298,3748
217,199151,151,1-610-777-3599,40.305777,-75.978516,"241 Lancaster Pike West, Reading, PA 19607",,KFC,kentucky fried Chicken,4bc8ae18ab62d13aa1c617d4,468,1271442968,2987.02853,15.66774456,,20.99076034,,5.7,1,KFC,kfc-reading-3,35184,40.293949,-75.902201,40.297806,-75.899969,2.59,W,West,L,Left,4,Fast Food,1,FastFood,4,Fast Food,1,FastFood,786,"40.305777,-75.978516",6107773599,627
218,814527,121,1-610-775-1887,40.305634,-75.979238,"2249 Lancaster Pike, Shillington, PA 19607",,Arbys,Arby's,4bf56583706e20a1d566aa98,952,1274373507,2953.110255,32.237198,,47.88172056,,6.7,1,Arbys,arbys-reading,35184,40.293949,-75.902201,40.297806,-75.899969,2.61,W,West,L,Left,4,Fast Food,1,FastFood,4,Fast Food,1,FastFood,790,"40.305634000000005,-75.979238",6107751887,1414
240,569050,283,1-610-844-9798,40.364153,-75.920157,"1920 Kutztown Rd, Reading, PA 19604",,Subway,Subway,531deeca498e8f9d9710904f,17,1394470602,1563.097581,1.087584051,,2.11119257,,6.5,1,Subway,a,35184,40.293949,-75.902201,40.297806,-75.899969,2.92,N,North,L,Left,4,Fast Food,1,FastFood,4,Fast Food,1,FastFood,3206,"40.364153,-75.92015699999999",6108449798,33
290,687312,173,1-570-546-4998,41.211979,-76.766359,"40 Neidigs Dr, Muncy, PA 17756",,Wendys,Wendy's,50db1692e4b079e5e7c47087,162,1356535442,2002.161933,8.091253626,,25.97192522,,6.5,1,Wendys,a,35522,41.207723,-76.769024,41.211564,-76.768917,0.14,E,East,R,Right,4,Fast Food,1,FastFood,4,Fast Food,1,FastFood,782,"41.211979,-76.766359",5705464998,520
294,307069,283,1-570-935-0466,41.210968,-76.759078,"1376 E. Penn Street, Muncy, PA 17756",,Subway,Subway,4cb0f513eb65b1f73fe070cd,149,1286665491,2810.841921,5.300902867,,5.407632455,,6.5,1,Subway,a,35522,41.207723,-76.769024,41.211564,-76.768917,0.32,E,East,R,Right,4,Fast Food,1,FastFood,4,Fast Food,1,FastFood,3206,"41.210968,-76.759078",5709350466,152
309,286796,153,1-570-584-3282,41.230071,-76.734668,"755 Sthy 405, Hughesville, PA 17737",,McDonalds,McDonald's,4c5760f06201e21ee567a66e,300,1280794864,2878.788993,10.4210486,,20.18209745,,5.5,1,McDonalds,mcdonalds-hughesville,35522,41.207723,-76.769024,41.211564,-76.768917,1.36,NE,Northeast,R,Right,4,Fast Food,1,FastFood,4,Fast Food,1,FastFood,771,"41.230071,-76.734668",5705843282,581
326,814892,121,1-570-546-9592,41.240732,-76.826464,"300 Lycoming Mall Cir Ste 2029, Muncy, PA 17756",300 Lycoming Mall Cir Ste 2029,Arbys,Arby's,4d5ad405916dbfc9a92560b9,164,1297798149,2681.991713,6.114858566,,6.338572904,,6,1,Arbys,arbys-muncy,35524,41.245989,-76.828548,41.247912,-76.833196,0.01,SE,Southeast,L,Left,4,Fast Food,1,FastFood,4,Fast Food,1,FastFood,790,"41.240732,-76.826464",5705469592,170
328,189246,127,1-570-935-0031,41.243818,-76.833232,"180 S Lycoming Mall Rd, Muncy, PA 17756-8152",180 S Lycoming Mall Rd,Burger King,Burger King,4bf964a45317a593212b017f,409,1274635428,2950.078762,13.86403663,,21.35536204,,5.4,1,Burger King,burger-king-muncy,35524,41.245989,-76.828548,41.247912,-76.833196,0.18,S,South,L,Left,4,Fast Food,1,FastFood,4,Fast Food,1,FastFood,779,"41.243818,-76.833232",5709350031,630
331,307096,283,1-570-546-3680,41.242148,-76.833909,"340 S. Lycoming Mall Rd, Williamsport, PA 17756",Lycoming Mall Rd,Subway,SUBWAY,4be1b18787e42d7f758e870b,350,1273082247,2968.055394,11.79223274,,14.45390814,,6.3,1,Subway,subway-muncy-2,35524,41.245989,-76.828548,41.247912,-76.833196,0.25,S,South,L,Left,4,Fast Food,1,FastFood,4,Fast Food,1,FastFood,3206,"41.242148,-76.83390899999999",5705463680,429
333,307094,283,1-570-546-9503,41.241024,-76.827753,"300 S Lycoming Mall Rd, Muncy, PA 17756",in Lycoming Mall,Subway,SUBWAY,50195d91e4b0bd857c030792,29,1343839633,2149.104167,1.349399459,,1.488992507,,6.6,1,Subway,subway-muncy-3,35524,41.245989,-76.828548,41.247912,-76.833196,0.34,SE,Southeast,L,Left,4,Fast Food,1,FastFood,4,Fast Food,1,FastFood,3206,"41.241023999999996,-76.827753",5705469503,32
349,307112,283,1-570-368-8782,41.260904,-76.916924,"999 North Loyalsock Ave, Montoursville, PA 17754",999 N Loyalsock Ave,Subway,SUBWAY,4d99f7659079b1f7df234e0a,142,1301935973,2634.100231,5.390835106,,6.719562068,,6.5,1,Subway,subway-montoursville,35526,41.263857,-76.914421,41.265517,-76.913261,0.23,SW,Southwest,L,Left,4,Fast Food,1,FastFood,4,Fast Food,1,FastFood,3206,"41.260904,-76.916924",5703688782,177
351,291971,173,1-570-368-3477,41.261447,-76.9165,"1007 N Loyalsock Ave, Montoursville, PA 17754",1007 N Loyalsock Ave,Wendys,Wendy's,4bfec574e584c92819366d25,470,1274987892,2945.999317,15.95383941,,26.9518053,,5.8,1,Wendys,wendys-montoursville,35526,41.263857,-76.914421,41.265517,-76.913261,0.33,SW,Southwest,L,Left,4,Fast Food,1,FastFood,4,Fast Food,1,FastFood,782,"41.261447,-76.9165",5703683477,794
380,443590,1056,1-570-505-3699,41.24991,-76.92847,"243 Broad St, Montoursville, PA 17754",243 Broad St,Marco's Pizza,Marco's Pizza,513a1411e4b0946901de4230,32,1362760721,1930.110093,1.657936515,,5.181051609,,,1,Marco's Pizza,a,35527,41.249006,-76.94066,41.247109,-76.951266,1.2,E,East,L,Left,4,Fast Food,1,FastFood,4,Fast Food,1,FastFood,881,"41.24991,-76.92846999999999",5705053699,100
383,307054,283,1-570-547-2439,41.188392,-76.91434,"Elimsport Rd & Route 15, Montgomery, PA 17752","Montgomery, PA 17752",Subway,Subway,5aea21fcff0306002c04da3f,1,1525293564,48.94292824,2.043196098,,8.172784391,,,1,Subway,subway-montgomery-8,35527,41.249006,-76.94066,41.247109,-76.951266,2.79,SE,Southeast,L,Left,4,Fast Food,1,FastFood,4,Fast Food,1,FastFood,3206,"41.188392,-76.91434",5705472439,4
388,814889,121,1-570-322-2336,41.249891,-76.970506,"1726 E 3rd St, Williamsport, PA 17701",1726 E 3rd St,Arbys,Arby's,4c4f05a192b6a59396d3e470,386,1280247201,2885.127685,13.37895726,,17.05297143,,5.9,1,Arbys,arbys-williamsport,35528,41.247108,-76.97011,41.249495,-76.974518,0.13,E,East,R,Right,4,Fast Food,1,FastFood,4,Fast Food,1,FastFood,790,"41.249891,-76.970506",5703222336,492
389,201786,153,1-570-323-4880,41.24974,-76.970067,"1730 E 3rd St, Williamsport, PA 17701",1730 E 3rd St,McDonalds,McDonald's,4bd1b3bc462cb7139fa3da07,1023,1272034236,2980.18515,34.32672631,,59.19095328,,5,1,McDonalds,mcdonalds-williamsport-2,35528,41.247108,-76.97011,41.249495,-76.974518,0.14,E,East,L,Left,4,Fast Food,1,FastFood,4,Fast Food,1,FastFood,771,"41.24974,-76.970067",5703234880,1764
391,307101,283,1-570-322-5710,41.250241,-76.969376,"1733 E Third St, Williamsport, PA 17701",1731-1799 E 3rd St,Subway,SUBWAY,4bc9b91e937ca5937c2ca692,225,1271511326,2986.23735,7.534565196,,9.979113015,,6.5,1,Subway,subway-williamsport-2,35528,41.247108,-76.97011,41.249495,-76.974518,0.17,E,East,R,Right,4,Fast Food,1,FastFood,4,Fast Food,1,FastFood,3206,"41.250240999999995,-76.969376",5703225710,298
397,454359,152,1-570-326-0351,41.25009,-76.96948,"1739 E. 3rd St., Williamsport, PA 17701",1739 E 3rd St,Long John Silvers,Long John Silver's,4bf56af76a31d13ad8da962e,246,1274374903,2953.094097,8.330245901,,10.59905271,,6.5,3,Long John Silvers,long-john-silvers-williamsport-3,35528,41.247108,-76.97011,41.249495,-76.974518,0.26,E,East,R,Right,4,Fast Food,1,FastFood,4,Fast Food,1,FastFood,819,"41.25009,-76.96948",5703260351,313
400,480166,1007,1-570-327-8300,41.24974,-76.96869,"1788 East Third Street, Williamsport, PA 17701",1788 E 3rd St,Little Caesars,Little Caesars Pizza,50d7427ce4b0feaa51379694,140,1356284540,2005.065891,6.982314178,,8.428650686,,6.1,1,Little Caesars,little-caesars-pizza-williamsport-2,35528,41.247108,-76.97011,41.249495,-76.974518,0.3,E,East,L,Left,4,Fast Food,1,FastFood,4,Fast Food,1,FastFood,788,"41.24974,-76.96869000000001",5703278300,169
407,550616,170,-,41.24925,-76.96626,"1837 East Third Street, Williamsport, PA 17701",1837 E 3rd St,Taco Bell,Taco Bell,4bc3a995461576b027fd7e32,715,1271114133,2990.834491,23.90637136,,32.49929085,,5.4,1,Taco Bell,taco-bell-williamsport,35528,41.247108,-76.97011,41.249495,-76.974518,0.43,E,East,L,Left,4,Fast Food,1,FastFood,4,Fast Food,1,FastFood,781,"41.24925,-76.96625999999999",,972
409,17582,151,1-570-322-2345,41.248848,-76.9657,"1850 E. Third Street, Williamsport, PA 17701",1850 E 3rd St,KFC,KFC,4be1d39ba145c928d7b44e80,281,1273090971,2967.954421,9.467800381,,11.25354209,,5.2,1,KFC,kfc-williamsport,35528,41.247108,-76.97011,41.249495,-76.974518,0.46,E,East,L,Left,4,Fast Food,1,FastFood,4,Fast Food,1,FastFood,786,"41.248847999999995,-76.9657",5703222345,334
410,411666,158,1-570-321-1234,41.2493,-76.9837,"1100 Washington Boulevard, Williamsport, PA 17701",1100 Washington Blvd,Papa Johns Pizza,Papa John's Pizza,4d8caafcfe8d41bd5624d705,28,1301064444,2644.187373,1.05892647,,1.248020482,,6.5,1,Papa Johns Pizza,papa-johns-pizza-williamsport,35528,41.247108,-76.97011,41.249495,-76.974518,0.48,W,West,R,Right,4,Fast Food,1,FastFood,4,Fast Food,1,FastFood,791,"41.2493,-76.9837",5703211234,33
428,189221,127,1-570-323-1741,41.247878,-76.9929,"611 Washington Boulevard, Williamsport, PA 17701-5328",611 Washington Blvd,Burger King,Burger King,4c041c2c187ec928a59ab67b,471,1275337772,2941.94978,16.00979062,,26.07114524,,5.8,1,Burger King,burger-king-williamsport,35529,41.244366,-76.991817,41.241752,-76.995513,0.28,NE,Northeast,R,Right,4,Fast Food,1,FastFood,4,Fast Food,1,FastFood,779,"41.247878,-76.9929",5703231741,767
457,307083,283,1-570-322-9942,41.233508,-76.993689,"26 E Southern Ave, South Williamsport, PA 17702",32 W Southern Ave,Subway,SUBWAY,4c448dd7f97fbe9a7c54bb30,225,1279561175,2893.067801,7.777211441,,9.436349881,,7.2,1,Subway,subway-williamsport,35530,41.241216,-76.995569,41.23901,-76.999278,0.3,SE,Southeast,L,Left,4,Fast Food,1,FastFood,4,Fast Food,1,FastFood,3206,"41.233508,-76.993689",5703229942,273
464,201754,153,1-570-326-1355,41.227161,-76.98706,"180 Montgomery Rd, South Williamsport, PA 17702",180 Montgomery Pike,McDonalds,McDonald's,4bb52a4b2ea19521dc19aa2f,1032,1270164043,3001.830903,34.37901845,,67.09238679,,5.8,1,McDonalds,mcdonalds-williamsport,35530,41.241216,-76.995569,41.23901,-76.999278,0.64,SE,Southeast,L,Left,4,Fast Food,1,FastFood,4,Fast Food,1,FastFood,771,"41.227160999999995,-76.98706",5703261355,2014
470,189197,127,1-570-326-7992,41.232065,-77.018816,"50 Maynard Street, Williamsport, PA 17701-5808",50 Maynard St,Burger King,Burger King,4c262e1c5c5ca5932e9f45fe,1537,1277570588,2916.107002,52.70725658,,61.17745332,,5.8,1,Burger King,burger-king-williamsport-2,35531,41.232249,-77.014691,41.231655,-77.019269,0.02,NE,Northeast,R,Right,4,Fast Food,1,FastFood,4,Fast Food,1,FastFood,779,"41.232065000000006,-77.018816",5703267992,1784
474,213923,173,1-570-326-5556,41.23327,-77.02068,"111 Maynard St, Williamsport, PA 17701",111 Maynard St,Wendys,Wendy's,4bc25a0474a9a593813ad3f6,710,1271028228,2991.828762,23.73130472,,27.97620007,,5.6,1,Wendys,wendys-williamsport,35531,41.232249,-77.014691,41.231655,-77.019269,0.13,NW,Northwest,R,Right,4,Fast Food,1,FastFood,4,Fast Food,1,FastFood,782,"41.233270000000005,-77.02068",5703265556,837
492,307093,283,1-570-322-6840,41.239556,-77.051813,"1963 W 4th St, Williamsport, PA 17701",1964 W 4th St,Subway,SUBWAY,4b8027fff964a520895730e3,210,1266690047,3042.03919,6.903264123,,8.842752615,,6.9,1,Subway,subway-williamsport-3,35531,41.232249,-77.014691,41.231655,-77.019269,1.1,W,West,R,Right,4,Fast Food,1,FastFood,4,Fast Food,1,FastFood,3206,"41.239556,-77.051813",5703226840,269
502,201812,153,1-570-323-5006,41.256051,-77.043222,"1940 Lycoming Creek Rd, Williamsport, PA 17701",1940 Lycoming Creek Rd,McDonalds,McDonald's,4bca47ed937ca593f798a792,1040,1271547885,2985.814213,34.83137013,,59.38078774,,5.9,1,McDonalds,mcdonalds-williamsport-4,35531,41.232249,-77.014691,41.231655,-77.019269,1.3,NW,Northwest,R,Right,4,Fast Food,1,FastFood,4,Fast Food,1,FastFood,771,"41.256051,-77.043222",5703235006,1773
517,480252,1007,1-570-327-6200,41.26042,-77.04338,"2062 Lycoming Creek Rd. Ste.6, Williamsport, PA 17701",2062 Lycoming Creek Rd Ste 6,Little Caesars,Little Caesars Pizza,4ef1007b8b8151e5667ddc2c,201,1324417147,2373.901458,8.467074288,,9.983565205,,6,1,Little Caesars,little-ceasars-pizza-williamsport,35531,41.232249,-77.014691,41.231655,-77.019269,2.35,NW,Northwest,R,Right,4,Fast Food,1,FastFood,4,Fast Food,1,FastFood,788,"41.26042,-77.04338",5703276200,237
521,898066,127,1-215-781-9370,40.110826,-74.853784,"1175 Beaver Street, Bristol, PA 19007-0000",1175 Beaver St,Burger King,Burger King,4c1d3d46b306c928e13e65b7,558,1276984646,2922.888738,19.09070272,,30.75724328,,5.6,1,Burger King,burger-king-bristol-3,35194,40.122675,-74.850271,40.117114,-74.846368,0.36,SW,Southwest,L,Left,4,Fast Food,1,FastFood,4,Fast Food,1,FastFood,779,"40.110826,-74.85378399999999",2157819370,899
542,202405,153,1-215-943-7004,40.132738,-74.829097,"Us Route 13 Haines Rd, Levittown, PA 19055",7701-7759 Bristol Pike,McDonalds,McDonalds,4b90768ff964a5209d8b33e3,705,1267758735,3029.670116,23.26986019,,56.37577475,,6.7,1,McDonalds,mcdonalds-levittown-4,35194,40.122675,-74.850271,40.117114,-74.846368,0.88,NE,Northeast,R,Right,4,Fast Food,1,FastFood,4,Fast Food,1,FastFood,771,"40.132738,-74.82909699999999",2159437004,1708
552,132131,283,1-215-874-5403,40.140448,-74.821284,"153 Levittown Parkway, Levittown, PA 19054",153 Levittown Pkwy (at Bristol Pk.),Subway,SUBWAY,4b671e9df964a520ec3b2be3,225,1265049245,3061.029954,7.350467111,,7.905835737,,7,1,Subway,subway-levittown-3,35194,40.122675,-74.850271,40.117114,-74.846368,1.3,NE,Northeast,R,Right,4,Fast Food,1,FastFood,4,Fast Food,1,FastFood,3206,"40.140448,-74.82128399999999",2158745403,242
557,456241,265,1-215-269-1266,40.1438,-74.8202,"169 A Levittown Parkway, Levittown, PA 19055",169 Levittown Pkwy,Popeyes Chicken,Popeyes,4ba7f652f964a52038c239e3,395,1269298770,3011.845637,13.11488196,,20.71819327,,6.4,1,Popeyes Chicken,popeyes-louisiana-kitchen-levittown,35194,40.122675,-74.850271,40.117114,-74.846368,1.43,NE,Northeast,R,Right,4,Fast Food,1,FastFood,4,Fast Food,1,FastFood,799,"40.1438,-74.8202",2152691266,624
572,100862,173,1-215-355-4647,40.135521,-74.965687,"3413 Horizon Blvd, Trevose, PA 19053",3413 Horizon Blvd,Wendys,Wendy's,4bc20282461576b007a57c32,1221,1271005826,2992.088044,40.80762271,,54.2764777,,6,1,Wendys,wendys-feasterville-trevose-2,58544,40.131288,-74.96756,40.130591,-74.967913,0.36,NE,Northeast,R,Right,4,Fast Food,1,FastFood,4,Fast Food,1,FastFood,782,"40.135521000000004,-74.965687",2153554647,1624
578,1161756,153,1-215-355-0255,40.136804,-74.964989,"3560 Horizon Boulevard, Trevose, PA 19053-4946",3560 Horizon Blvd,McDonalds,McDonald's,51e96ea3498ebf4bb27e7712,366,1374252707,1797.100995,20.36613418,,57.92662753,,5.8,1,McDonalds,mcdonalds-feasterville-trevose-5,58544,40.131288,-74.96756,40.130591,-74.967913,0.46,NE,Northeast,R,Right,4,Fast Food,1,FastFood,4,Fast Food,1,FastFood,771,"40.136804,-74.964989",2153550255,1041
590,1172369,130,1-215-355-3500,40.138291,-74.962407,"3621 Horizon Blvd, Trevose, PA 19053",3621 Horizon Blvd,Chick-Fil-A,Chick-fil-A,4bae5245f964a52068a23be3,4084,1269715525,3007.022083,135.8154309,,222.87831,,8.6,2,Chick-Fil-A,chick-fil-a-trevose,58544,40.131288,-74.96756,40.130591,-74.967913,0.61,NE,Northeast,R,Right,4,Fast Food,1,FastFood,4,Fast Food,1,FastFood,796,"40.138290999999995,-74.962407",2153553500,6702
591,1210256,241,1-215-776-0500,40.135855,-74.957941,"200 Rockhill Drive, Bensalem, PA 19020",200 Rockhill Dr,Jimmy Johns,jimmy john's,5552904a498ed7494b39be75,100,1431474250,1134.814618,8.812011972,,13.57049844,,7.4,1,Jimmy Johns,a,58544,40.131288,-74.96756,40.130591,-74.967913,0.64,NE,Northeast,R,Right,4,Fast Food,1,FastFood,4,Fast Food,1,FastFood,798,"40.135855,-74.957941",2157760500,154
604,1172387,130,1-215-364-9155,40.138503,-74.955658,"307 Neshaminy Mall, Bensalem, PA 19020",307 Neshaminy Mall,Chick-Fil-A,Chick-fil-A,4c12b2f01b5cef3b27cdedc4,604,1276293872,2930.883808,20.60811822,,21.93877486,,7.2,1,Chick-Fil-A,chick-fil-a-bensalem,58544,40.131288,-74.96756,40.130591,-74.967913,0.85,NE,Northeast,R,Right,4,Fast Food,1,FastFood,4,Fast Food,1,FastFood,796,"40.138503,-74.955658",2153649155,643
609,132896,283,1-215-355-0600,40.136554,-74.967538,"3461 Horizon Blvd, Trevose, PA 19053",3461 Horizon Blvd (at Rt. 1),Subway,SUBWAY,4cea17d1e1eeb60c0f89acae,1084,1290409937,2767.503426,39.16887653,,40.61422253,,6.7,1,Subway,subway-feasterville-trevose,58544,40.131288,-74.96756,40.130591,-74.967913,1,N,North,R,Right,4,Fast Food,1,FastFood,4,Fast Food,1,FastFood,3206,"40.136554,-74.967538",2153550600,1124
645,91856,158,1-215-639-7272,40.11046,-74.9533,"2747 Street Road, Bensalem, PA 19020-2810",2747 Street Rd,Papa Johns Pizza,Papa John's Pizza,4c3f5d64bb2d9c74bfde7dd6,178,1279221092,2897.003947,6.144278823,,6.282352504,,6.4,1,Papa Johns Pizza,papa-johns-pizza-bensalem,58544,40.131288,-74.96756,40.130591,-74.967913,1.59,SE,Southeast,L,Left,4,Fast Food,1,FastFood,4,Fast Food,1,FastFood,791,"40.110459999999996,-74.9533",2156397272,182
650,150132,153,1-215-357-4844,40.146078,-74.993453,"334 E Street Rd, Feasterville, PA 19047",334 E Street Rd,McDonalds,McDonald's,4bdf77196198c9b6617017ff,826,1272936217,2969.745556,27.81383066,,58.92760734,,7.4,1,McDonalds,mcdonalds-feasterville-trevose,58544,40.131288,-74.96756,40.130591,-74.967913,1.72,NW,Northwest,R,Right,4,Fast Food,1,FastFood,4,Fast Food,1,FastFood,771,"40.146078,-74.993453",2153574844,1750
661,130379,283,1-215-364-9464,40.147487,-74.996072,"258 East Street Rd, Feasterville, PA 19053",258 E Street Rd (at Central Ave.),Subway,SUBWAY,4bbe353e8ca376b0bb7bc77a,146,1270756670,2994.971794,4.874837229,,5.075173005,,6.6,1,Subway,subway-feasterville,58544,40.131288,-74.96756,40.130591,-74.967913,1.89,NW,Northwest,R,Right,4,Fast Food,1,FastFood,4,Fast Food,1,FastFood,3206,"40.147487,-74.996072",2153649464,152
662,198829,151,1-215-322-3040,40.146867,-74.996693,"265 East Street Road, Feasterville, PA 19053",265 E Street Rd,KFC,KFC,515c82c9f0e4172442778ce2,47,1365017289,1903.992407,2.468497239,,3.046230635,,5.8,1,KFC,kfc-feasterville,58544,40.131288,-74.96756,40.130591,-74.967913,1.89,NW,Northwest,R,Right,4,Fast Food,1,FastFood,4,Fast Food,1,FastFood,786,"40.146867,-74.99669300000001",2153223040,58
664,814423,121,1-215-942-7788,40.14726,-74.997227,"245 E Street Rd, Feasterville-Trevose, PA 19053",245 E Street Rd,Arbys,Arby's,4bc7398a0050b713933bb83b,789,1271347594,2988.132396,26.40445253,,47.62171857,,7.6,2,Arbys,arbys-feasterville-trevose,58544,40.131288,-74.96756,40.130591,-74.967913,1.93,NW,Northwest,R,Right,4,Fast Food,1,FastFood,4,Fast Food,1,FastFood,790,"40.147259999999996,-74.997227",2159427788,1423
665,545019,170,-,40.1475,-74.99723,"265 East Street Road, Feasterville, PA 19053",265 E Street Rd,Taco Bell,Taco Bell,4c102364e7d29521febcd7b0,724,1276126052,2932.826169,24.68608633,,45.38284656,,6.4,1,Taco Bell,taco-bell-feasterville,58544,40.131288,-74.96756,40.130591,-74.967913,1.94,NW,Northwest,R,Right,4,Fast Food,1,FastFood,4,Fast Food,1,FastFood,781,"40.1475,-74.99723",,1331
676,133152,283,1-215-604-0113,40.104317,-74.95086,"2376 Street Rd, Bensalem, PA 19020",2376 Street Rd (at Knights Rd.),Subway,SUBWAY,4bf0217751f2c9b69539f192,278,1274028407,2957.104468,9.401088228,,12.444606,,6.4,1,Subway,subway-bensalem-bensalem,58544,40.131288,-74.96756,40.130591,-74.967913,2.03,SE,Southeast,L,Left,4,Fast Food,1,FastFood,4,Fast Food,1,FastFood,3206,"40.104317,-74.95085999999999",2156040113,368
708,411427,158,1-215-396-7272,40.14767,-75.00334,"934 Bustleton Pike, Feasterville Trevose, PA 19053-6053",627 Bustleton Pike,Papa Johns Pizza,Papa Johns Pizza,4f44904619836ed00194e89f,0,1329893446,2310.518368,0,,0,,,1,Papa Johns Pizza,papa-johns-pizza-feasterville-trevose,58544,40.131288,-74.96756,40.130591,-74.967913,2.21,NW,Northwest,R,Right,4,Fast Food,1,FastFood,4,Fast Food,1,FastFood,791,"40.14767,-75.00334000000001",2153967272,0
722,896102,127,1-215-357-5670,40.15155,-75.001666,"1035 Bustleton Pike, Feasterville Trevose, PA 19053-7608",1035 Bustleton Pike,Burger King,Burger King,4bdb4cdd3904a5939db4499e,545,1272663261,2972.904769,18.33223875,,38.48088281,,5.5,1,Burger King,burger-king-feasterville-trevose-2,58544,40.131288,-74.96756,40.130591,-74.967913,2.3,NW,Northwest,R,Right,4,Fast Food,1,FastFood,4,Fast Food,1,FastFood,779,"40.15155,-75.001666",2153575670,1144
763,489040,167,1-267-282-5878,40.16809,-75.12583,"2405 Easton Road, Willow Grove, PA 19090-1106",2405 Easton Rd,Sonic,SONIC Drive In,4c3f33aa0596c928f9528578,3375,1279210410,2897.127581,116.4946971,,157.9495508,,6.7,1,Sonic,sonic-drive-in-willow-grove,35196,40.162374,-75.115144,40.164978,-75.124846,0.22,N,North,R,Right,4,Fast Food,1,FastFood,4,Fast Food,1,FastFood,789,"40.16809,-75.12583000000001",2672825878,4576
782,102401,153,1-215-443-7745,40.175076,-75.12884,"Pa Rte 611 And Pine Ave, Horsham, PA 19044",205 Easton Rd (Pine Ave),McDonalds,McDonald's,4b59b495f964a520d79328e3,2223,1264170133,3071.204861,72.3820162,,105.0727694,,5.6,1,McDonalds,mcdonalds-horsham-2,35196,40.162374,-75.115144,40.164978,-75.124846,0.45,N,North,R,Right,4,Fast Food,1,FastFood,4,Fast Food,1,FastFood,771,"40.175076000000004,-75.12884",2154437745,3227
789,132510,283,1-215-659-1104,40.158691,-75.139545,"2101 Blair Mill Rd, Willow Grove, PA 19090",2100 Blair Mill Rd (Inside Walmart),Subway,SUBWAY,4c2f4121a0ced13a6b26106e,273,1278165281,2909.223981,9.383945744,,9.796426876,,6.6,1,Subway,subway-willow-grove,35196,40.162374,-75.115144,40.164978,-75.124846,0.55,SW,Southwest,L,Left,4,Fast Food,1,FastFood,4,Fast Food,1,FastFood,3206,"40.158691,-75.139545",2156591104,285
814,132318,283,1-215-443-9201,40.180686,-75.134664,"303 Horsham Rd, Horsham, PA 19044",303 Horsham Rd,Subway,SUBWAY,4babb06ff964a5208cc03ae3,181,1269543023,3009.018634,6.015250219,,6.347584486,,6.6,1,Subway,subway-horsham,35196,40.162374,-75.115144,40.164978,-75.124846,0.75,NW,Northwest,R,Right,4,Fast Food,1,FastFood,4,Fast Food,1,FastFood,3206,"40.180686,-75.134664",2154439201,191
819,821923,283,-,40.177141,-75.106621,"2 South York Road, Hatboro, PA 19040",52 S York Rd,Subway,SUBWAY,4e4def38bd41b76bef959602,0,1313730360,2497.591123,0,,0,,,1,Subway,subway-willow-grove-5,35196,40.162374,-75.115144,40.164978,-75.124846,0.79,NE,Northeast,R,Right,4,Fast Food,1,FastFood,4,Fast Food,1,FastFood,3206,"40.177141,-75.10662099999999",,0
823,187634,127,1-215-444-0497,40.183066,-75.116776,"198 Blair Mill Road, Horsham, PA 19044-3072",198 Blair Mill Rd,Burger King,Burger King,4c784d0a2d3ba143488b8ad0,399,1282952458,2853.81684,13.98127569,,23.75765643,,5.8,1,Burger King,burger-king-horsham-4,35196,40.162374,-75.115144,40.164978,-75.124846,0.82,NE,Northeast,R,Right,4,Fast Food,1,FastFood,4,Fast Food,1,FastFood,779,"40.183066,-75.116776",2154440497,678
832,150223,153,1-215-443-7795,40.179961,-75.10587,"121 N York Rd, Hatboro, PA 19040",121 N York Rd,McDonalds,McDonald's,4bad416cf964a5209b3e3be3,1193,1269645676,3007.830521,39.66313899,,78.92731933,,5.9,1,McDonalds,mcdonalds-hatboro,35196,40.162374,-75.115144,40.164978,-75.124846,0.89,NE,Northeast,R,Right,4,Fast Food,1,FastFood,4,Fast Food,1,FastFood,771,"40.179961,-75.10587",2154437795,2374
843,187682,127,1-215-657-5728,40.14324,-75.115381,"106 York Road, Willow Grove, PA 19090-3210",106 York Rd (Easton Rd),Burger King,Burger King,4b8882e5f964a5204efd31e3,883,1267237605,3035.701713,29.08717929,,58.66847828,,6.4,1,Burger King,burger-king-willow-grove,35196,40.162374,-75.115144,40.164978,-75.124846,0.98,SE,Southeast,L,Left,4,Fast Food,1,FastFood,4,Fast Food,1,FastFood,779,"40.143240000000006,-75.115381",2156575728,1781
845,132191,283,1-215-706-2025,40.142517,-75.117096,"112 Park Ave, Willow Grove, PA 19090",112 Park Ave,Subway,SUBWAY,4b9179aff964a5205fbf33e3,277,1267825071,3028.902338,9.145227184,,9.244272966,,6.8,1,Subway,subway-willow-grove-5,35196,40.162374,-75.115144,40.164978,-75.124846,1,S,South,L,Left,4,Fast Food,1,FastFood,4,Fast Food,1,FastFood,3206,"40.142517,-75.11709599999999",2157062025,280
854,64706,173,1-215-675-1688,40.179994,-75.130916,"415 Easton Rd, Horsham, PA 19044",415 Easton Rd (Rte 611),Wendys,Wendy's,4b9681ebf964a520d0d034e3,944,1268154859,3025.085347,31.20573113,,65.91549563,,6.1,1,Wendys,wendys-horsham,35196,40.162374,-75.115144,40.164978,-75.124846,1.09,N,North,R,Right,4,Fast Food,1,FastFood,4,Fast Food,1,FastFood,782,"40.179994,-75.130916",2156751688,1994
855,198406,151,1-215-658-1000,40.139345,-75.118605,"1865 Easton Rd, Willow Grove, PA 19090",1865 Easton Rd (Davisville Road),KFC,KFC,4ba54121f964a52046f238e3,437,1269121313,3013.899537,14.49948794,,27.07455872,,5.7,1,KFC,kfc-willow-grove,35196,40.162374,-75.115144,40.164978,-75.124846,1.12,S,South,L,Left,4,Fast Food,1,FastFood,4,Fast Food,1,FastFood,786,"40.139345,-75.118605",2156581000,816
857,411425,158,1-215-657-3100,40.13863,-75.1196,"1843 Easton Rd, Willow Grove, PA 19090-4103",1843 Easton Rd (611 & Davisville),Papa Johns Pizza,Papa John's Pizza,4ceb09ddd99f721e19bebe73,940,1290471901,2766.78625,33.97443514,,42.32347186,,7.4,1,Papa Johns Pizza,papa-johns-willow-grove,35196,40.162374,-75.115144,40.164978,-75.124846,1.14,S,South,L,Left,4,Fast Food,1,FastFood,4,Fast Food,1,FastFood,791,"40.13863,-75.1196",2156573100,1171
870,442074,126,1-215-784-9090,40.13432,-75.11513,"1776 Old York Road, Abington, PA 19001",1776 Old York Rd,Boston Market,Boston Market,4bbd1f2ea0a0c9b6614a1b0f,603,1270685486,2995.795683,20.12820846,,44.32879076,,7.6,2,Boston Market,boston-market-abington,35196,40.162374,-75.115144,40.164978,-75.124846,1.35,S,South,L,Left,4,Fast Food,1,FastFood,4,Fast Food,1,FastFood,864,"40.13432,-75.11513000000001",2157849090,1328
876,123147,153,1-215-657-0399,40.131212,-75.115765,"1663 Old York Rd, Abington, PA 19001",1663 Old York Rd,McDonalds,McDonald's,4b744aa5f964a52001d32de3,1882,1265912485,3051.03875,61.68391011,,92.65696806,,5.6,1,McDonalds,mcdonalds-abington,35196,40.162374,-75.115144,40.164978,-75.124846,1.48,S,South,L,Left,4,Fast Food,1,FastFood,4,Fast Food,1,FastFood,771,"40.131212,-75.115765",2156570399,2827
914,187658,127,1-215-675-5423,40.204703,-75.097184,"580 W Street Road, Warminster, PA 18974-3223",580 W St Rd,Burger King,Burger King,4c38b39f0a71c9b68e1f41c9,648,1278784415,2902.058079,22.3289811,,29.42739176,,5.9,1,Burger King,burger-king-warminster,35196,40.162374,-75.115144,40.164978,-75.124846,1.93,NE,Northeast,R,Right,4,Fast Food,1,FastFood,4,Fast Food,1,FastFood,779,"40.204703,-75.097184",2156755423,854
916,132061,283,1-267-803-1826,40.207532,-75.104672,"888 W Street Rd, Warminster, PA 18974",888 W Street Rd,Subway,SUBWAY,4d0168de85c6a143acaf5237,310,1291938014,2749.81735,11.27347604,,12.10989523,,6.1,1,Subway,subway-warminster,35196,40.162374,-75.115144,40.164978,-75.124846,1.94,NE,Northeast,R,Right,4,Fast Food,1,FastFood,4,Fast Food,1,FastFood,3206,"40.207532,-75.104672",2678031826,333
926,439285,241,1-215-366-7075,40.151948,-75.136338,"3612 Welsh Rd, Willow Grove, PA 19090",3612 Welsh Rd,Jimmy Johns,Jimmy John's,507d8202e4b0ff6572fbc029,357,1350402562,2073.14434,17.22021921,,21.12732777,,7.3,1,Jimmy Johns,jimmy-johns-willow-grove,35196,40.162374,-75.115144,40.164978,-75.124846,2.05,SW,Southwest,L,Left,4,Fast Food,1,FastFood,4,Fast Food,1,FastFood,798,"40.151948,-75.136338",2153667075,438
936,187706,127,1-215-918-8881,40.214053,-75.140039,"60 Easton Road, Warrington, PA 18976-2512",60 Easton Rd,Burger King,Burger King,4af45e49f964a520c6f121e3,739,1257528905,3148.070926,23.47469347,,36.49854235,,5.5,1,Burger King,burger-king-warrington,35196,40.162374,-75.115144,40.164978,-75.124846,2.16,N,North,R,Right,4,Fast Food,1,FastFood,4,Fast Food,1,FastFood,779,"40.214053,-75.140039",2159188881,1149
938,1172360,130,1-215-657-7676,40.140255,-75.123068,"2500 W Moreland Rd Ste 3066, Willow Grove, PA 19090",2500 W Moreland Rd Ste 3066,Chick-Fil-A,Chick-fil-A,4b8ea01ff964a520bf2c33e3,1371,1267638303,3031.064005,45.23164136,,58.75824454,,7.3,1,Chick-Fil-A,chick-fil-a-willow-grove-2,35196,40.162374,-75.115144,40.164978,-75.124846,2.19,S,South,L,Left,4,Fast Food,1,FastFood,4,Fast Food,1,FastFood,796,"40.140254999999996,-75.123068",2156577676,1781
944,130764,283,1-215-672-2052,40.202949,-75.076415,"880 Jacksonville Rd, Ivyland, PA 18974",880 Jacksonville Rd,Subway,SUBWAY,4bc1eb51b492d13a519aa660,539,1270999889,2992.156759,18.01376209,,23.99606898,,7.1,1,Subway,subway-ivyland-ivyland,35196,40.162374,-75.115144,40.164978,-75.124846,2.27,NE,Northeast,R,Right,4,Fast Food,1,FastFood,4,Fast Food,1,FastFood,3206,"40.202949,-75.076415",2156722052,718
947,1161955,153,1-215-343-2900,40.218472,-75.138647,"250 Metro Drive, Warrington, PA 18976","Warrington, PA",McDonalds,McDonalds,55d8932f498e561ffb62aa6d,278,1440256815,1033.16456,26.9076206,,84.40088187,,7.1,1,McDonalds,mcdonalds-warrington-4,35196,40.162374,-75.115144,40.164978,-75.124846,2.34,N,North,R,Right,4,Fast Food,1,FastFood,4,Fast Food,1,FastFood,771,"40.218472,-75.13864699999999",2153432900,872
966,411438,158,1-215-956-2300,40.20095,-75.1013,"390A York Rd, Warminster, PA 18974-4525",390A York Rd,Papa Johns Pizza,Papa John's Pizza,4cbcd3cf9552b60c7ab9e78b,304,1287443407,2801.838264,10.85001957,,13.31268849,,6.2,1,Papa Johns Pizza,papa-johns-pizza-warminster,35196,40.162374,-75.115144,40.164978,-75.124846,2.78,NE,Northeast,R,Right,4,Fast Food,1,FastFood,4,Fast Food,1,FastFood,791,"40.20095,-75.1013",2159562300,373
971,130570,283,1-215-343-1130,40.230537,-75.139711,"624 Easton Rd, Warrington, PA 18976",624 Easton Rd,Subway,SUBWAY,4c856699d6ebbfb7a0e15fa4,246,1283810969,2843.88037,8.650152888,,15.29600206,,7,1,Subway,subway-warrington-4,35196,40.162374,-75.115144,40.164978,-75.124846,2.85,N,North,R,Right,4,Fast Food,1,FastFood,4,Fast Food,1,FastFood,3206,"40.230537,-75.139711",2153431130,435
983,152074,283,1-267-462-4705,40.142116,-75.167373,"1711 North Limekiln Pike, Dresher, PA 19025","Dresher, PA 19025",Subway,SUBWAY / Snack Shack,574c8672498ecdcb5cd47d1e,30,1464632946,751.0334144,3.994496041,,6.524343533,,6.6,1,Subway,subway-dresher,35197,40.14014,-75.166659,40.140278,-75.171646,0.16,NE,Northeast,R,Right,4,Fast Food,1,FastFood,4,Fast Food,1,FastFood,3206,"40.142115999999994,-75.167373",2674624705,49
985,128728,173,1-215-641-0887,40.141452,-75.166493,"1710 Limekiln Pike, Dresher, PA 19025",1710 Limekiln Pike,Wendys,Wendy's,4bb36fe7eb3e9521401acb0a,974,1270050791,3003.14169,32.43270217,,48.41596402,,5.6,2,Wendys,wendys-dresher,35197,40.14014,-75.166659,40.140278,-75.171646,0.18,E,East,L,Left,4,Fast Food,1,FastFood,4,Fast Food,1,FastFood,782,"40.141452,-75.166493",2156410887,1454
986,123226,153,1-215-628-4850,40.144122,-75.167777,"1650 Limekiln Pike, Dresher, PA 19025",1650 Limekiln Pike (at Dreshertown Rd.),McDonalds,McDonald's,4aae3b48f964a520b86120e3,1334,1252932424,3201.270938,41.67094963,,78.78121063,,5.7,1,McDonalds,mcdonalds-dresher,35197,40.14014,-75.166659,40.140278,-75.171646,0.21,NE,Northeast,R,Right,4,Fast Food,1,FastFood,4,Fast Food,1,FastFood,771,"40.144121999999996,-75.167777",2156284850,2522
1003,132575,283,1-215-576-7827,40.113533,-75.153695,"501 Edge Hill Rd, Glenside, PA 19038",501 Edge Hill Rd,Subway,SUBWAY,4b81b56ff964a52019b930e3,314,1266791791,3040.861597,10.32602077,,11.67432284,,6.4,1,Subway,subway-glenside,35197,40.14014,-75.166659,40.140278,-75.171646,1.29,SE,Southeast,L,Left,4,Fast Food,1,FastFood,4,Fast Food,1,FastFood,3206,"40.113533000000004,-75.153695",2155767827,355
1012,118463,127,1-215-886-6383,40.117306,-75.137659,"900 Easton Road, Roslyn, PA 19001-4304",900 Easton Rd,Burger King,Burger King,4c11108cf1b6a5933cdd7c27,995,1276186764,2932.123484,33.93445077,,59.47907752,,6.1,1,Burger King,burger-king-glenside,35197,40.14014,-75.166659,40.140278,-75.171646,1.49,SE,Southeast,L,Left,4,Fast Food,1,FastFood,4,Fast Food,1,FastFood,779,"40.117306,-75.137659",2158866383,1744
1117,132381,283,1-215-885-1139,40.081625,-75.168411,"1000 Easton Rd, Wyncote, PA 19095",1000 Easton Rd #216,Subway,SUBWAY,4b454cf0f964a520310a26e3,206,1262832880,3086.682326,6.673832232,,6.771023964,,6.9,1,Subway,subway-wyncote-2,35197,40.14014,-75.166659,40.140278,-75.171646,2.52,S,South,L,Left,4,Fast Food,1,FastFood,4,Fast Food,1,FastFood,3206,"40.081625,-75.16841099999999",2158851139,209
1122,456212,265,-,40.08095,-75.17011,"3110 W. Cheltenham Avenue, Philadelphia, PA 19150",3110 W Cheltenham Ave (at Wadsworth Ave),Popeyes Chicken,Popeye's Chicken & Biscuits,4ce97e2af8653704ca5bb7c4,589,1290370602,2767.958692,21.27921929,,50.36202325,,6.1,1,Popeyes Chicken,popeyes-cheltenham,35197,40.14014,-75.166659,40.140278,-75.171646,2.55,S,South,L,Left,4,Fast Food,1,FastFood,4,Fast Food,1,FastFood,799,"40.08095,-75.17011",,1394
1129,434188,267,1-215-887-2341,40.08891,-75.1269,"261 Old York Road, Jenkintown, PA 19046",261 Old York Rd Ste 215A,Qdoba,Qdoba Mexican Grill,4bf41aa46a31d13a685a952e,1338,1274288804,2954.090613,45.29312655,,70.34313675,,6.9,1,Qdoba,qdoba-mexican-eats-jenkintown,35197,40.14014,-75.166659,40.140278,-75.171646,2.65,SE,Southeast,L,Left,4,Fast Food,1,FastFood,4,Fast Food,1,FastFood,837,"40.08891,-75.1269",2158872341,2078
1145,198334,151,1-215-886-5635,40.075793,-75.159406,"8140 Ogontz Ave, Wyncote, PA 19095",8140 Ogontz Ave,KFC,KFC,4d9f4001ded9a093a5290107,323,1302282241,2630.0925,12.28093689,,21.78630599,,5.4,1,KFC,kfc-wyncote,35197,40.14014,-75.166659,40.140278,-75.171646,2.8,S,South,L,Left,4,Fast Food,1,FastFood,4,Fast Food,1,FastFood,786,"40.075793,-75.159406",2158865635,573
1148,128689,173,1-215-887-8427,40.073895,-75.156932,"2385 W Cheltenham Ave, Philadelphia, PA 19150",2385 Cheltenham Avenue (Ogontz Av),Wendys,Wendy's,4b3e4b32f964a520c99a25e3,948,1262373682,3091.997118,30.65979572,,71.50718179,,6.2,1,Wendys,wendys-philadelphia-41,35197,40.14014,-75.166659,40.140278,-75.171646,2.89,S,South,L,Left,4,Fast Food,1,FastFood,4,Fast Food,1,FastFood,782,"40.073895,-75.156932",2158878427,2211
1151,286385,153,1-215-424-8810,40.072935,-75.157627,"791117 Ogontz Ave, Philadelphia, PA 19150",7911 Ogontz Ave (at Cheltenham Ave.),McDonalds,McDonald's,4c766514604a3704cc328549,900,1282827540,2855.26265,31.52074293,,74.24886112,,5.7,1,McDonalds,mcdonalds-philadelphia-64,35197,40.14014,-75.166659,40.140278,-75.171646,2.93,S,South,L,Left,4,Fast Food,1,FastFood,4,Fast Food,1,FastFood,771,"40.072935,-75.157627",2154248810,2120
1165,128766,173,1-610-878-2200,40.091878,-75.360168,"306 S Henderson Rd, King Of Prussia, PA 19406",306 S Henderson Rd,Wendys,Wendy's,4b03062af964a520034c22e3,1387,1258489386,3136.954248,44.21486227,,72.71384343,,5.6,1,Wendys,wendys-king-of-prussia,35200,40.088187,-75.366815,40.088187,-75.366815,0.27,NE,Northeast,R,Right,4,Fast Food,1,FastFood,4,Fast Food,1,FastFood,782,"40.091878,-75.360168",6108782200,2281
1173,102040,153,1-610-491-8960,40.095566,-75.364963,"151 North Henderson Road, King Of Prussia, PA 19406",151 N Henderson Rd (at Valley Forge Shopping Center),McDonalds,McDonald's,4b213b4df964a520a53824e3,1540,1260469069,3114.04125,49.45342326,,88.43813485,,5.5,1,McDonalds,mcdonalds-king-of-prussia,35200,40.088187,-75.366815,40.088187,-75.366815,0.32,N,North,R,Right,4,Fast Food,1,FastFood,4,Fast Food,1,FastFood,771,"40.095566,-75.364963",6104918960,2754
1174,115459,283,1-610-491-9296,40.094072,-75.360964,"139 E Dekalb Pike Rte 202, King Of Prussia, PA 19406",139 E Dekalb Pike,Subway,Subway,4c1105ab3ce120a1abf7081c,998,1276183979,2932.155718,34.03639152,,41.64171748,,7,1,Subway,subway-king-of-prussia-2,35200,40.088187,-75.366815,40.088187,-75.366815,0.32,NE,Northeast,R,Right,4,Fast Food,1,FastFood,4,Fast Food,1,FastFood,3206,"40.094072,-75.360964",6104919296,1221
1175,411419,158,1-610-265-7272,40.0946,-75.361,"139 E. Dekalb Pike, King Of Prussia, PA 19406",139 E Dekalb Pike (S. Henderson Road),Papa Johns Pizza,Papa John's Pizza,4c771039b4b4b60c67b2260e,206,1282871353,2854.755556,7.216029393,,7.286087931,,6.2,1,Papa Johns Pizza,papa-johns-pizza-king-of-prussia,35200,40.088187,-75.366815,40.088187,-75.366815,0.33,NE,Northeast,R,Right,4,Fast Food,1,FastFood,4,Fast Food,1,FastFood,791,"40.0946,-75.361",6102657272,208
1181,67644,210,1-412-281-2515,40.44068,-80.002572,,25 Market Sq,Brueggers Bagel Bakery,Bruegger's Bagel Bakery,4b0c1d28f964a5201c3723e3,1482,1259085096,3130.059456,47.34734342,,51.66036054,,6.7,2,Brueggers Bagel Bakery,brueggers-bagels-pittsburgh-15,35464,40.439585,-80.010054,40.440394,-80.006971,0.14,E,East,L,Left,4,Fast Food,1,FastFood,4,Fast Food,1,FastFood,,"40.44068,-80.002572",4122812515,1617
1182,453262,1047,-,40.439908,-80.002743,"Two Ppg Place, Pittsburgh, PA 15222",Fifth Ave Place,Sbarro,Sbarro,52cee1f611d2aced953849d7,19,1389289974,1623.058553,1.170629363,,1.170629363,,,2,Sbarro,sbarro-restaurant-pittsburgh-2,35464,40.439585,-80.010054,40.440394,-80.006971,0.14,E,East,L,Left,4,Fast Food,1,FastFood,4,Fast Food,1,FastFood,844,"40.439908,-80.00274300000001",,19
1184,306266,283,1-412-261-2955,40.440199,-80.00252,"3 Market Square, Pittsburgh, PA 15222",2 Market Sq,Subway,Subway,4bec2572a9900f47d59d1840,274,1273767282,2960.126748,9.256360398,,9.323925072,,6.5,1,Subway,subway-pittsburgh-53,35464,40.439585,-80.010054,40.440394,-80.006971,0.15,E,East,L,Left,4,Fast Food,1,FastFood,4,Fast Food,1,FastFood,3206,"40.440199,-80.00251999999999",4122612955,276
1188,228266,283,1-412-471-7277,40.439518,-80.001376,"401 Wood Street, Pittsburgh, PA 15222-1824",401 Wood St (4th Ave),Subway,Subway,4b7ad7a7f964a52056402fe3,932,1266341799,3046.069838,30.59680341,,37.72073725,,6.8,1,Subway,subway-pittsburgh-23,35464,40.439585,-80.010054,40.440394,-80.006971,0.19,E,East,L,Left,4,Fast Food,1,FastFood,4,Fast Food,1,FastFood,3206,"40.439518,-80.00137600000001",4124717277,1149
1193,306261,283,1-412-261-4840,40.439085,-79.999185,"414 Smithfield St, Pittsburgh, PA 15222",414 Smithfield St,Subway,Subway,4ae875dff964a52086af21e3,762,1256748511,3157.103264,24.13604929,,28.38044641,,6.3,1,Subway,subway-pittsburgh-26,35464,40.439585,-80.010054,40.440394,-80.006971,0.26,E,East,L,Left,4,Fast Food,1,FastFood,4,Fast Food,1,FastFood,3206,"40.439085,-79.999185",4122614840,896
1199,306251,283,1-412-281-3260,40.432527,-80.00393,"101 W. Station Square Drive, Pittsburgh, PA 15219",1 E Station Square Dr,Subway,Subway,4b649ccaf964a5201ec22ae3,701,1264884938,3062.931655,22.88657009,,24.8128292,,5.3,1,Subway,subway-pittsburgh-12,35464,40.439585,-80.010054,40.440394,-80.006971,0.35,S,South,L,Left,4,Fast Food,1,FastFood,4,Fast Food,1,FastFood,3206,"40.432527,-80.00393000000001",4122813260,760
1200,306256,283,1-412-281-8822,40.43704,-79.996957,"225 Ross Street, Pittsburgh, PA 15219",225 Ross St,Subway,Subway Restaurant,4db98726fa8c978590d1d8c4,295,1304004390,2610.16022,11.3019882,,12.45134293,,6.2,1,Subway,subway-pittsburgh-65,35464,40.439585,-80.010054,40.440394,-80.006971,0.36,E,East,L,Left,4,Fast Food,1,FastFood,4,Fast Food,1,FastFood,3206,"40.43704,-79.996957",4122818822,325
1205,306247,283,1-412-431-4440,40.430093,-80.007181,"219 Shiloh St, Pittsburgh, PA 15211",219 Shiloh St (at Beam Way),Subway,Subway,4b80807af964a520047830e3,462,1266712698,3041.777025,15.18849002,,15.81312489,,6.6,1,Subway,subway-pittsburgh-20,35464,40.439585,-80.010054,40.440394,-80.006971,0.44,S,South,R,Right,4,Fast Food,1,FastFood,4,Fast Food,1,FastFood,3206,"40.430093,-80.007181",4124314440,481
1210,306255,283,1-412-566-8205,40.43654,-79.990833,"700 Forbes Ave, Pittsburgh, PA 15219","Pittsburgh, PA 15219",Subway,SUBWAY,502a8241e4b0a60b7019096a,404,1344963137,2136.100648,18.9129665,,19.52155206,,6.5,1,Subway,subway-pittsburgh-38,35464,40.439585,-80.010054,40.440394,-80.006971,0.55,E,East,L,Left,4,Fast Food,1,FastFood,4,Fast Food,1,FastFood,3206,"40.43654,-79.990833",4125668205,417
1217,821964,283,1-412-904-1512,40.428615,-79.985656,"1214 E. Carson Street, Pittsburgh, PA 15203",1214 E Carson St,Subway,Subway,5388c486498e5e2ed87ab5ca,43,1401472134,1482.061331,2.901364411,,3.306205956,,6.6,1,Subway,a,35464,40.439585,-80.010054,40.440394,-80.006971,0.86,SE,Southeast,L,Left,4,Fast Food,1,FastFood,4,Fast Food,1,FastFood,3206,"40.428615,-79.985656",4129041512,49
1227,228081,283,1-412-281-1754,40.442493,-80.002773,"526 Penn Avenue, Pittsburgh, PA 15222",2 Market Sq,Subway,Subway,4bec2572a9900f47d59d1840,274,1273767282,2960.126748,9.256360398,,9.323925072,,6.5,1,Subway,subway-pittsburgh-13,35465,40.440894,-80.008826,40.443462,-80.005148,0.09,E,East,R,Right,4,Fast Food,1,FastFood,4,Fast Food,1,FastFood,3206,"40.442493,-80.002773",4122811754,276
1230,169518,153,1-412-391-5470,40.441319,-80.003639,"500 Liberty Ave, Pittsburgh, PA 15222",500 Liberty Ave (at Stanwix St.),McDonalds,McDonald's,4c6006ed1e5cd13a29ada0ed,1281,1281361645,2872.229028,44.59950748,,55.00954084,,4.8,1,McDonalds,mcdonalds-pittsburgh-24,35465,40.440894,-80.008826,40.443462,-80.005148,0.1,SE,Southeast,R,Right,4,Fast Food,1,FastFood,4,Fast Food,1,FastFood,771,"40.441319,-80.003639",4123915470,1580
1231,84244,241,1-412-697-0999,40.441407,-80.003313,"506 Liberty Ave., Pittsburgh, PA 15222",506 Liberty Ave (Delay St.),Jimmy Johns,Jimmy John's,514213be3d7ca5b4135a90a2,1857,1363284926,1924.042905,96.51551923,,111.4840004,,8.4,1,Jimmy Johns,jimmy-johns-pittsburgh-3,35465,40.440894,-80.008826,40.443462,-80.005148,0.1,SE,Southeast,R,Right,4,Fast Food,1,FastFood,4,Fast Food,1,FastFood,798,"40.441407,-80.003313",4126970999,2145
1250,228142,283,1-412-434-7827,40.442651,-79.99973,"703 Liberty Ave, Pittsburgh, PA 15222",703 Liberty Ave (7th St),Subway,SUBWAY,4b914bd9f964a520dbb033e3,914,1267813337,3029.038148,30.17459521,,35.95200677,,5.9,1,Subway,subway-pittsburgh-70,35465,40.440894,-80.008826,40.443462,-80.005148,0.18,E,East,R,Right,4,Fast Food,1,FastFood,4,Fast Food,1,FastFood,3206,"40.442651,-79.99973",4124347827,1089
1255,169490,153,1-412-261-2281,40.442368,-79.999133,"608 Wood St, Pittsburgh, PA 15222",608 Wood St (at Liberty Ave.),McDonalds,McDonald's,4c07d94a271dc9b6bf762b9a,1647,1275582794,2939.113877,56.03729793,,77.30221063,,4.9,1,McDonalds,mcdonalds-pittsburgh-37,35465,40.440894,-80.008826,40.443462,-80.005148,0.2,E,East,R,Right,4,Fast Food,1,FastFood,4,Fast Food,1,FastFood,771,"40.442368,-79.999133",4122612281,2272
1257,814555,121,1-412-281-1425,40.442534,-79.998746,"808 Liberty Ave., Pittsburgh, PA 15222",808 Liberty Ave. (6th Ave),Arbys,Arby's,4b56f0cef964a520fe1f28e3,1009,1263988942,3073.301979,32.83113755,,42.2347042,,5.3,1,Arbys,arbys-pittsburgh-13,35465,40.440894,-80.008826,40.443462,-80.005148,0.21,E,East,R,Right,4,Fast Food,1,FastFood,4,Fast Food,1,FastFood,790,"40.442534,-79.998746",4122811425,1298
1260,94998,267,1-412-281-2415,40.44267,-79.99879,"808 Liberty Avenue, Pittsburgh, PA 15222",808 Liberty Ave,Qdoba,Qdoba Mexican Grill,4b14060ef964a520ee9b23e3,1978,1259603470,3124.059757,63.31505009,,78.74369223,,6.2,1,Qdoba,qdoba-mexican-eats-pittsburgh-2,35465,40.440894,-80.008826,40.443462,-80.005148,0.21,E,East,R,Right,4,Fast Food,1,FastFood,4,Fast Food,1,FastFood,837,"40.44267,-79.99879",4122812415,2460
1269,169465,153,1-412-281-1777,40.440383,-79.998582,"505 Smithfield St, Pittsburgh, PA 15219",505 Smithfield St (at 5th Ave.),McDonalds,McDonald's,4b2ad421f964a52075b024e3,2109,1261098017,3106.761759,67.88418821,,105.5439797,,4.5,1,McDonalds,mcdonalds-pittsburgh-26,35465,40.440894,-80.008826,40.443462,-80.005148,0.25,SE,Southeast,R,Right,4,Fast Food,1,FastFood,4,Fast Food,1,FastFood,771,"40.440383000000004,-79.998582",4122811777,3279
1273,306270,283,1-412-281-7335,40.444037,-79.996838,"930 Penn Ave, Pittsburgh, PA 15222",930 Penn Ave,Subway,Subway,4af1bdd8f964a520aee221e3,1246,1257356760,3150.063345,39.55476013,,41.23726598,,5.7,1,Subway,subway-pittsburgh-10,35465,40.440894,-80.008826,40.443462,-80.005148,0.27,E,East,R,Right,4,Fast Food,1,FastFood,4,Fast Food,1,FastFood,3206,"40.444037,-79.996838",4122817335,1299
1275,228326,283,1-412-391-3177,40.44272,-79.996161,"411 Seventh Ave, Pittsburgh, PA 15219",Seventh Avenue,Subway,Subway,4afaf7b9f964a520ef1922e3,576,1257961401,3143.065185,18.32605963,,23.22573529,,6.3,1,Subway,subway-pittsburgh-58,35465,40.440894,-80.008826,40.443462,-80.005148,0.3,E,East,R,Right,4,Fast Food,1,FastFood,4,Fast Food,1,FastFood,3206,"40.44272,-79.996161",4123913177,730
1284,1194769,127,1-412-291-9176,40.442756,-79.997068,"647-649 Smithfield Ave, Pittsburgh, PA 15222",647-649 Smithfield St (Seventh Avenue),Burger King,Burger King on Smithfield,58b0b2657d0f6d3e47c6dbf7,149,1487975013,480.8706019,30.98546666,,79.85516239,,5.8,1,Burger King,burger-king-pittsburgh-24,35465,40.440894,-80.008826,40.443462,-80.005148,0.42,E,East,R,Right,4,Fast Food,1,FastFood,4,Fast Food,1,FastFood,779,"40.442756,-79.997068",4122919176,384
1286,821966,283,1-412-224-2176,40.453416,-80.001548,"400 E. Ohio Street, Pittsburgh, PA 15212",400 E Ohio St,Subway,Subway,558d91ce498e000964863c94,43,1435341262,1090.057535,3.944745908,,7.706015263,,6.6,1,Subway,a,35465,40.440894,-80.008826,40.443462,-80.005148,0.44,N,North,R,Right,4,Fast Food,1,FastFood,4,Fast Food,1,FastFood,3206,"40.453416,-80.001548",4122242176,84
1296,227891,283,1-412-321-2384,40.450061,-80.018148,"950 Ridge Ave, Pittsburgh, PA 15212",725 Allegheny Ave,Subway,SUBWAY,4b8028ccf964a520d05730e3,559,1266690252,3042.036817,18.37584597,,22.91228022,,5.8,1,Subway,subway-pittsburgh-42,35465,40.440894,-80.008826,40.443462,-80.005148,0.51,NW,Northwest,L,Left,4,Fast Food,1,FastFood,4,Fast Food,1,FastFood,3206,"40.450061,-80.018148",4123212384,697
1297,439779,241,1-412-281-3474,40.440038,-79.996584,"501 Grant St, Pittsburgh, PA 15219",501 Grant St Ste 140 (at Oliver Ave.),Jimmy Johns,Jimmy John's,4f0724bde4b090ef2087d3e1,2429,1325868221,2357.10662,103.0500691,,129.8201776,,7.5,1,Jimmy Johns,jimmy-johns-pittsburgh-9,35465,40.440894,-80.008826,40.443462,-80.005148,0.51,E,East,R,Right,4,Fast Food,1,FastFood,4,Fast Food,1,FastFood,798,"40.440038,-79.996584",4122813474,3060
1304,215758,173,1-412-231-1653,40.450247,-80.018895,"725 Allegheny Ave, Pittsburgh, PA 15233",725 Allegheny Ave (Ridge Ave),Wendys,Wendy's,4bd4d8ffcfa7b713640225da,1125,1272240383,2977.79919,37.77957909,,62.52940112,,5.4,1,Wendys,wendys-pittsburgh-3,35465,40.440894,-80.008826,40.443462,-80.005148,0.54,NW,Northwest,L,Left,4,Fast Food,1,FastFood,4,Fast Food,1,FastFood,782,"40.450247,-80.018895",4122311653,1862
1305,1210221,241,1-412-224-6440,40.444729,-79.995096,"1027 Penn Ave, Pittsburgh, PA 15222",1027 Penn Ave.,Jimmy Johns,Jimmy John's,56392fe0cd10f4310d93c719,193,1446588384,959.8825116,20.10662739,,31.56636321,,7.4,1,Jimmy Johns,a,35465,40.440894,-80.008826,40.443462,-80.005148,0.54,E,East,R,Right,4,Fast Food,1,FastFood,4,Fast Food,1,FastFood,798,"40.444728999999995,-79.99509599999999",4122246440,303
1306,306263,283,1-412-471-3570,40.438947,-79.989599,"1035 Fifth Ave, Pittsburgh, PA 15219","Pittsburgh, PA 15219",Subway,SUBWAY,502a8241e4b0a60b7019096a,404,1344963137,2136.100648,18.9129665,,19.52155206,,6.5,1,Subway,subway-pittsburgh-64,35465,40.440894,-80.008826,40.443462,-80.005148,0.54,E,East,R,Right,4,Fast Food,1,FastFood,4,Fast Food,1,FastFood,3206,"40.438947,-79.989599",4124713570,417
1308,169570,153,1-412-322-6660,40.450857,-80.018844,"801 Allegheny Ave, Pittsburgh, PA 15233",801 Allegheny Ave (Western Ave.),McDonalds,McDonald's,4b8bd1e7f964a520f4ac32e3,1592,1267454439,3033.19206,52.48596094,,103.7850534,,4.8,1,McDonalds,mcdonalds-pittsburgh-18,35465,40.440894,-80.008826,40.443462,-80.005148,0.55,NW,Northwest,L,Left,4,Fast Food,1,FastFood,4,Fast Food,1,FastFood,771,"40.450857,-80.018844",4123226660,3148
1310,546515,170,-,40.4492,-80.02024,"705 Allegheny Avenue, Pittsburgh, PA 15233",705 Allegheny Ave,Taco Bell,Taco Bell,4f54e71de4b0ddd8f9cf5057,1713,1330964253,2298.124769,74.53903389,,210.4324389,,6.6,1,Taco Bell,taco-bell-pittsburgh-11,35465,40.440894,-80.008826,40.443462,-80.005148,0.55,W,West,L,Left,4,Fast Food,1,FastFood,4,Fast Food,1,FastFood,781,"40.4492,-80.02024",,4836
1318,169544,153,1-412-471-1747,40.449305,-79.986305,"1630 Penn Ave, Pittsburgh, PA 15222",1630 Penn Ave,McDonalds,McDonald's,4b8afc4cf964a520b18c32e3,1575,1267399756,3033.824965,51.91466278,,78.9762108,,5.1,1,McDonalds,mcdonalds-pittsburgh-21,35465,40.440894,-80.008826,40.443462,-80.005148,0.66,E,East,R,Right,4,Fast Food,1,FastFood,4,Fast Food,1,FastFood,771,"40.449304999999995,-79.986305",4124711747,2396
1322,821965,283,1-412-456-2300,40.442499,-79.981961,"1846 Centre Ave., Pittsburgh, PA 15219",1860 Centre Ave,Subway,Subway,4f43ac6e19834bc91f582bfa,9,1329835118,2311.193461,0.389409201,,0.432676891,,6.6,1,Subway,a,35465,40.440894,-80.008826,40.443462,-80.005148,0.76,E,East,R,Right,4,Fast Food,1,FastFood,4,Fast Food,1,FastFood,3206,"40.442499,-79.981961",4124562300,10
1361,1206845,143,1-412-821-3643,40.493082,-79.975594,"1201 North Ave, Millvale, PA 15209-2251",1201 North Ave (at Evergreen Ave),Hardees,Hardee's,4b1ececaf964a520cb1f24e3,951,1260310218,3115.879803,30.52107463,,59.98305833,,7.4,2,Hardees,hardees-pittsburgh,35470,40.486861,-80.008875,40.495676,-80.011526,1.9,E,East,R,Right,4,Fast Food,1,FastFood,4,Fast Food,1,FastFood,3191,"40.493082,-79.975594",4128213643,1869
1365,228574,283,1-412-486-9776,40.525602,-79.961931,"1708 Mount Royal Blvd, Glenshaw, PA 15116",1708 Mount Royal Blvd,Subway,SUBWAY,4baea34cf964a52080c93be3,381,1269736268,3006.782002,12.67135428,,15.23223166,,6.2,1,Subway,subway-glenshaw-2,35470,40.486861,-80.008875,40.495676,-80.011526,2.07,NE,Northeast,R,Right,4,Fast Food,1,FastFood,4,Fast Food,1,FastFood,3206,"40.525602,-79.961931",4124869776,458
1368,243532,153,1-412-487-7505,40.513381,-79.9517,"971 William Flynn Hwy, Glenshaw, PA 15116-2633",971 William Flynn Hwy (at E Pennview Ave),McDonalds,McDonald's,4bf2c19482002d7fa8ead0bb,1781,1274200468,2955.113021,60.26842247,,109.3359197,,6.3,1,McDonalds,mcdonalds-glenshaw,35470,40.486861,-80.008875,40.495676,-80.011526,2.09,E,East,R,Right,4,Fast Food,1,FastFood,4,Fast Food,1,FastFood,771,"40.513381,-79.9517",4124877505,3231
1371,896135,127,1-412-782-3332,40.511184,-79.947524,"909 Butler St, Etna, PA 15223-1303",909 Butler St,Burger King,Burger King,4b218e42f964a520d13d24e3,1097,1260490306,3113.795451,35.23031673,,54.33882946,,5.6,1,Burger King,burger-king-pittsburgh-9,35470,40.486861,-80.008875,40.495676,-80.011526,2.19,E,East,R,Right,4,Fast Food,1,FastFood,4,Fast Food,1,FastFood,779,"40.511184,-79.947524",4127823332,1692
1372,452846,152,1-412-782-0858,40.5098,-79.94594,"Rt 8 Shaler Plaza, Pittsburgh, PA 15223",880 Butler St,Long John Silvers,Long John Silver's,4bf6fe8913aed13a1999eaf7,232,1274478217,2951.898333,7.859349266,,7.927102277,,6.1,3,Long John Silvers,long-john-silvers-pittsburgh-3,35470,40.486861,-80.008875,40.495676,-80.011526,2.22,E,East,R,Right,4,Fast Food,1,FastFood,4,Fast Food,1,FastFood,819,"40.5098,-79.94594000000001",4127820858,234
1383,411502,158,1-412-492-8892,40.539,-79.961,"1746 William Flynn Hwy, Glenshaw, PA 15116",1746í__í_í_í__ŒëŒÇ__Williamí__í_í_í__ŒëŒÇ__Flynní__í_í_í__ŒëŒÇ__Hwyí__í_í_í__ŒëŒÇ__(Butlerí__í_í_í__ŒëŒÇ__Plankí__í_í_í__ŒëŒÇ__Road),Papa Johns Pizza,Fox'sí__í_í_í__ŒëŒÇ__Pizzaí__í_í_í__ŒëŒÇ__Den,54628f6b498e5d8de4967157,2,1415745387,1316.861644,0.151876244,,0.151876244,,,1,Papa Johns Pizza,a,35470,40.486861,-80.008875,40.495676,-80.011526,2.48,NE,Northeast,R,Right,4,Fast Food,1,FastFood,4,Fast Food,1,FastFood,791,"40.539,-79.961",4124928892,2
1385,1210218,241,1-412-366-1800,40.527941,-80.006142,"4840 Mcknight Rd, Pittsburgh, PA 15237",4840 McKnight Rd,Jimmy Johns,Jimmy John's,5506f922498e3f7368738525,111,1426520354,1192.151377,9.310898105,,21.30601909,,7,1,Jimmy Johns,a,35470,40.486861,-80.008875,40.495676,-80.011526,2.73,N,North,R,Right,4,Fast Food,1,FastFood,4,Fast Food,1,FastFood,798,"40.527941,-80.00614200000001",4123661800,254
1389,169436,153,1-412-931-1511,40.517569,-80.029306,"363 Perry Hwy, Pittsburgh, PA 15229",363 Perry Hwy,McDonalds,McDonald's,4b3fd799f964a52045b025e3,1330,1262475161,3090.822593,43.03061597,,74.80209332,,5.5,1,McDonalds,mcdonalds-pittsburgh-29,35471,40.498908,-80.021697,40.50313,-80.025955,0.63,N,North,R,Right,4,Fast Food,1,FastFood,4,Fast Food,1,FastFood,771,"40.517569,-80.029306",4129311511,2312
1391,85920,152,1-412-931-2297,40.51717,-80.03229,"807 W View Park Drive, West View, PA 15229","West View, PA 15229",Long John Silvers,Long Johns,4ca617e4f47ea143e3225d21,18,1285953508,2819.082465,0.638505621,,0.638505621,,,,Long John Silvers,long-john-silvers-pittsburgh-2,35471,40.498908,-80.021697,40.50313,-80.025955,0.64,NW,Northwest,R,Right,4,Fast Food,1,FastFood,4,Fast Food,1,FastFood,819,"40.51717,-80.03229",4129312297,18
1395,215666,173,1-412-931-2611,40.517693,-80.032128,"802 Westview Park Dr, West View, PA 15229",802 Westview Park Dr,Wendys,Wendy's,4b0838d7f964a5209b0623e3,772,1258830039,3133.011505,24.64082876,,39.70620594,,5.2,1,Wendys,wendys-pittsburgh-15,35471,40.498908,-80.021697,40.50313,-80.025955,0.66,NW,Northwest,R,Right,4,Fast Food,1,FastFood,4,Fast Food,1,FastFood,782,"40.517693,-80.032128",4129312611,1244
1404,306331,283,1-412-548-3172,40.518032,-80.005668,"4721 Mcknight Rd., Pittsburgh, PA 15237",4721 McKnight Rd,Subway,Subway,54ddbe9c498efbce69368a8e,37,1423818396,1223.424039,3.024298919,,5.067744135,,6.6,1,Subway,subway-pittsburgh-83,35471,40.498908,-80.021697,40.50313,-80.025955,0.92,NE,Northeast,R,Right,4,Fast Food,1,FastFood,4,Fast Food,1,FastFood,3206,"40.518032,-80.005668",4125483172,62
1416,814631,121,1-412-766-4242,40.487677,-80.055682,"4260 Ohio River Blvd, Bellevue, PA 15202",4260 Ohio River Blvd,Arbys,Arby's,4ae25ebaf964a520bb8d21e3,804,1256349370,3161.722951,25.42917303,,39.5037775,,6.4,1,Arbys,arbys-pittsburgh-14,35471,40.498908,-80.021697,40.50313,-80.025955,1.17,SW,Southwest,L,Left,4,Fast Food,1,FastFood,4,Fast Food,1,FastFood,790,"40.487677000000005,-80.05568199999999",4127664242,1249
1417,814632,121,1-412-366-0636,40.525383,-80.004974,"4810 Mcknight Rd, Pittsburgh, PA 15237",4810 McKnight Rd,Arbys,Arby's,4b22dc63f964a520f74e24e3,1116,1260575843,3112.80544,35.85190342,,44.33299886,,6.2,1,Arbys,arbys-pittsburgh,35471,40.498908,-80.021697,40.50313,-80.025955,1.17,NE,Northeast,R,Right,4,Fast Food,1,FastFood,4,Fast Food,1,FastFood,790,"40.525383000000005,-80.004974",4123660636,1380
1418,200134,151,1-412-761-4803,40.488409,-80.056633,"4306 Ohio River Blvd., Bellevue, PA 15202",4306 Ohio River Blvd (at Shiloh Ave),KFC,KFC,4bd9b8060115c9b668597880,573,1272559622,2974.104294,19.26630486,,33.15283872,,6.2,1,KFC,kfc-bellevue-5,35471,40.498908,-80.021697,40.50313,-80.025955,1.18,SW,Southwest,L,Left,4,Fast Food,1,FastFood,4,Fast Food,1,FastFood,786,"40.488409000000004,-80.05663299999999",4127614803,986
1429,173739,153,1-412-364-4773,40.528587,-80.008312,"4849 Mcknight Rd, Pittsburgh, PA 15237",4849 McKnight Rd (next to chipolte),McDonalds,McDonald's,4bb534b4f562ef3b84ab2e97,1552,1270166708,3001.800058,51.70231095,,65.96042247,,6.1,1,McDonalds,mcdonalds-pittsburgh-31,35471,40.498908,-80.021697,40.50313,-80.025955,1.23,NE,Northeast,R,Right,4,Fast Food,1,FastFood,4,Fast Food,1,FastFood,771,"40.528587,-80.008312",4123644773,1980
1441,215647,173,1-412-366-7117,40.538047,-80.011881,"7317 Mcknight Rd, Pittsburgh, PA 15237",7317 McKnight Rd,Wendys,Wendy's,4b11c13ff964a520ed8323e3,1095,1259454783,3125.780671,35.03124868,,71.91803381,,5.7,1,Wendys,wendys-pittsburgh-17,35471,40.498908,-80.021697,40.50313,-80.025955,1.56,N,North,R,Right,4,Fast Food,1,FastFood,4,Fast Food,1,FastFood,782,"40.538047,-80.011881",4123667117,2248
1477,227955,283,1-412-766-2115,40.494621,-80.064454,"971 Ohio River Blvd, Pittsburgh, PA 15202",969 Ohio River Blvd,Subway,Subway,4bfbde6ad0382d7f8a2aca0a,509,1274797674,2948.200914,17.26476637,,18.38409307,,7,1,Subway,subway-pittsburgh-44,35472,40.511568,-80.049968,40.517723,-80.052618,1.06,SW,Southwest,L,Left,4,Fast Food,1,FastFood,4,Fast Food,1,FastFood,3206,"40.494621,-80.064454",4127662115,542
1478,191515,127,1-412-761-9505,40.495016,-80.066272,"920 Ohio River Blvd., Avalon, PA 15202-2833",920 Ohio River Blvd,Burger King,Burger King,4c0131cade3376b0a967f9a4,1132,1275146698,2944.161285,38.44898056,,59.91519585,,5.3,1,Burger King,burger-king-pittsburgh-16,35472,40.511568,-80.049968,40.517723,-80.052618,1.07,SW,Southwest,L,Left,4,Fast Food,1,FastFood,4,Fast Food,1,FastFood,779,"40.495016,-80.066272",4127619505,1764
1479,215684,173,1-412-761-7373,40.49409,-80.063536,"1015 Ohio River Blvd, Avalon, PA 15202",1015 Ohio River Blvd,Wendys,Wendy's,4be71832bcef2d7f47da05e5,721,1273436210,2963.9586,24.32557594,,35.62802801,,4.8,1,Wendys,wendys-pittsburgh-18,35472,40.511568,-80.049968,40.517723,-80.052618,1.07,SW,Southwest,L,Left,4,Fast Food,1,FastFood,4,Fast Food,1,FastFood,782,"40.49409,-80.063536",4127617373,1056
1483,171350,153,1-412-734-2580,40.492146,-80.06218,"4557 Ohio River Blvd, Pittsburgh, PA 15202",4557 Ohio River Blvd,McDonalds,McDonald's,4b57c638f964a5206c4028e3,2121,1264043576,3072.669641,69.02792189,,120.1560998,,5,1,McDonalds,mcdonalds-pittsburgh-22,35472,40.511568,-80.049968,40.517723,-80.052618,1.14,S,South,L,Left,4,Fast Food,1,FastFood,4,Fast Food,1,FastFood,771,"40.492146000000005,-80.06218",4127342580,3692
1487,228205,283,1-412-635-9343,40.534241,-80.018939,"3336 Babcock Blvd, Mcknight, PA 15237",3336 Babcock Blvd (Hillcrest Dr),Subway,Subway,4beb1fe86295c9b6dd518708,441,1273700328,2960.901678,14.89411159,,20.02768293,,7.6,1,Subway,subway-pittsburgh-16,35472,40.511568,-80.049968,40.517723,-80.052618,1.31,NE,Northeast,R,Right,4,Fast Food,1,FastFood,4,Fast Food,1,FastFood,3206,"40.534240999999994,-80.018939",4126359343,593
1489,411500,158,1-412-369-7272,40.5346,-80.0189,"3336 Babcock Blvd., Pittsburgh, PA 15237",3336 Babcock Blvd,Papa Johns Pizza,Papa John's Pizza,4c92922a418ea1cdf810a685,203,1284674090,2833.890544,7.16329713,,9.845122656,,6.6,1,Papa Johns Pizza,papa-johns-pittsburgh,35472,40.511568,-80.049968,40.517723,-80.052618,1.32,NE,Northeast,R,Right,4,Fast Food,1,FastFood,4,Fast Food,1,FastFood,791,"40.5346,-80.0189",4123697272,279
1495,243516,153,1-412-364-1138,40.54634,-80.016405,"7702 Mc Knight Rd, Pittsburgh, PA 15237",7702 McKnight Rd (at Johnanna Dr.),McDonalds,McDonald's,4ba94117f964a52078183ae3,2005,1269383447,3010.865579,66.59214593,,105.3849771,,5.5,1,McDonalds,mcdonalds-pittsburgh-40,35472,40.511568,-80.049968,40.517723,-80.052618,1.7,NE,Northeast,R,Right,4,Fast Food,1,FastFood,4,Fast Food,1,FastFood,771,"40.54634,-80.016405",4123641138,3173
1502,441331,141,1-412-366-0500,40.54321,-80.00913,"1000 Ross Park Mall Drive, Unit Vc02, Pittsburgh, PA 15237",1000 Ross Park Mall Dr,Five Guys Burgers,Five Guys,4ce5d72bb7f160fcb9e21f27,755,1290131243,2770.729051,27.24914584,,33.1681656,,7.8,1,Five Guys Burgers,five-guys-pittsburgh-3,35472,40.511568,-80.049968,40.517723,-80.052618,1.79,NE,Northeast,R,Right,4,Fast Food,1,FastFood,4,Fast Food,1,FastFood,818,"40.543209999999995,-80.00913",4123660500,919
1510,226941,283,1-412-364-4854,40.552498,-80.01564,"3070 Mcintyre Square Dr, Pittsburgh, PA 15237",7900 McKnight Rd,Subway,Subway,4bacde4ff964a520cf133be3,572,1269620303,3008.12419,19.01517238,,25.26491435,,6.3,1,Subway,subway-pittsburgh-47,35472,40.511568,-80.049968,40.517723,-80.052618,1.92,NE,Northeast,R,Right,4,Fast Food,1,FastFood,4,Fast Food,1,FastFood,3206,"40.552498,-80.01564",4123644854,760
1522,306339,283,1-412-366-3002,40.536169,-80.066385,"264 Mt. Nebo Pointe Drive, Pittsburgh, PA 15237",247 - 250 Mt Nebo Pointe Drive (Mt Nebo Pointe Shopping Center),Subway,Subway,50671870e4b08e8fd39a3690,285,1348933744,2090.144549,13.63542058,,15.83622531,,6.6,1,Subway,subway-pittsburgh-84,35473,40.521342,-80.065282,40.525576,-80.069854,0.47,N,North,R,Right,4,Fast Food,1,FastFood,4,Fast Food,1,FastFood,3206,"40.536169,-80.066385",4123663002,331
1533,87616,153,1-717-939-6972,40.240554,-76.805115,"850 Eisenhower Blvd, Harrisburg, PA 17111",850 Eisenhower Blvd,McDonalds,McDonald's,4b92a224f964a520ee0b34e3,2348,1267900964,3028.023947,77.54231939,,117.8326216,,5.3,1,McDonalds,mcdonalds-harrisburg-3,36368,40.239435,-76.801938,40.242605,-76.804119,0.09,SW,Southwest,L,Left,4,Fast Food,1,FastFood,4,Fast Food,1,FastFood,771,"40.240553999999996,-76.805115",7179396972,3568
1537,88284,251,1-717-901-8226,40.24448,-76.80639,"4635 High Pointe Blvd., Harrisburg, PA 17111",4635 High Pointe Blvd.,Moes Southwest Grill,Moe's Southwest Grill,4b6b1b94f964a52046f32be3,3696,1265310612,3058.004873,120.8631168,,141.3666812,,6.6,2,Moes Southwest Grill,moes-southwest-grill-harrisburg,36368,40.239435,-76.801938,40.242605,-76.804119,0.11,NW,Northwest,L,Left,4,Fast Food,1,FastFood,4,Fast Food,1,FastFood,856,"40.244479999999996,-76.80639000000001",7179018226,4323
1542,1172299,130,1-717-939-5155,40.241978,-76.802904,"4655 Lindle Rd, Harrisburg, PA 17111",4655 Lindle Rd,Chick-Fil-A,Chick-fil-A,56ddd24bcd10848ee2838b45,921,1457377867,835.0042361,110.2988416,,328.6210873,,8.9,1,Chick-Fil-A,chick-fil-a-harrisburg-3,36368,40.239435,-76.801938,40.242605,-76.804119,0.13,SE,Southeast,R,Right,4,Fast Food,1,FastFood,4,Fast Food,1,FastFood,796,"40.241978,-76.802904",7179395155,2744
1553,22321,283,1-717-564-0201,40.244977,-76.803995,"4635 High Pointe Blvd, Harrisburg, PA 17111",4635 High Pointe Blvd,Subway,Subway,4b5b642bf964a52041fa28e3,1025,1264280619,3069.926088,33.388426,,36.45038896,,6.9,1,Subway,subway-harrisburg-9,36368,40.239435,-76.801938,40.242605,-76.804119,0.29,N,North,R,Right,4,Fast Food,1,FastFood,4,Fast Food,1,FastFood,3206,"40.244977,-76.803995",7175640201,1119
1573,91866,158,1-717-564-7070,40.25793,-76.81055,"4200 Derry St, Harrisburg, PA 17111-2609",4200 Derry St,Papa Johns Pizza,Papa John's Pizza,4bc8765c8b7c9c74c72038cf,146,1271428700,2987.193669,4.887530444,,4.92100668,,6.7,1,Papa Johns Pizza,papa-johns-pizza-harrisburg-2,36368,40.239435,-76.801938,40.242605,-76.804119,0.69,NW,Northwest,R,Right,4,Fast Food,1,FastFood,4,Fast Food,1,FastFood,791,"40.25793,-76.81055",7175647070,147
1580,545414,170,-,40.22033,-76.79198,"825 Eisenhower Blvd, Middletown, PA 17057",825 S Eisenhower Blvd,Taco Bell,Taco Bell,4bb005d2f964a52052323ce3,960,1269827026,3005.731563,31.93897991,,56.32572187,,6.2,1,Taco Bell,taco-bell-middletown-3,36368,40.239435,-76.801938,40.242605,-76.804119,1.04,SE,Southeast,L,Left,4,Fast Food,1,FastFood,4,Fast Food,1,FastFood,781,"40.22033,-76.79198000000001",,1693
1584,214251,173,1-717-939-5566,40.217377,-76.791205,"801 S Eisenhower Blvd, Middletown, PA 17057",801 S Eisenhower Blvd,Wendys,Wendy's,4b71dc4cf964a520bc602de3,1114,1265753164,3052.882743,36.49010112,,65.28255972,,5.8,1,Wendys,wendys-middletown-18,36368,40.239435,-76.801938,40.242605,-76.804119,1.16,SE,Southeast,L,Left,4,Fast Food,1,FastFood,4,Fast Food,1,FastFood,782,"40.217377,-76.791205",7179395566,1993
1592,62990,283,1-717-986-0211,40.207386,-76.788325,"311 N 2nd St, Highspire, PA 17034",311 2nd St,Subway,SUBWAY,4bb4cc1086a8d13a6de0de7f,334,1270139920,3002.110104,11.12550801,,12.95755274,,6.2,1,Subway,subway-highspire,36368,40.239435,-76.801938,40.242605,-76.804119,1.6,SE,Southeast,L,Left,4,Fast Food,1,FastFood,4,Fast Food,1,FastFood,3206,"40.207386,-76.788325",7179860211,389
1596,2487,153,1-717-564-0321,40.263863,-76.783919,"6004 Derry St, Harrisburg, PA 17111",6004 Derry St,McDonalds,McDonald's,4eaf660661af6ac587da623a,1325,1320117766,2423.662813,54.66932088,,89.90524543,,5.3,1,McDonalds,mcdonalds-harrisburg-17,36368,40.239435,-76.801938,40.242605,-76.804119,1.81,NE,Northeast,R,Right,4,Fast Food,1,FastFood,4,Fast Food,1,FastFood,771,"40.263863,-76.783919",7175640321,2179
1607,87848,153,1-717-944-9535,40.201634,-76.770252,"2270 W Harrisburg Pike, Middletown, PA 17057",2270 W Harrisburg Pike,McDonalds,McDonald's,4b983a56f964a520b93535e3,1702,1268267606,3023.780405,56.28715621,,72.95503325,,5.1,1,McDonalds,mcdonalds-middletown-4,36368,40.239435,-76.801938,40.242605,-76.804119,2.08,SE,Southeast,R,Right,4,Fast Food,1,FastFood,4,Fast Food,1,FastFood,771,"40.201634000000006,-76.770252",7179449535,2206
1608,2459,153,1-717-561-0445,40.261466,-76.772755,"6535 Grayson Rd Wm 1591, Harrisburg, PA 17111",6535 Grayson Rd (at WalMart),McDonalds,McDonald's,4be45235910020a1e68ad114,405,1273254453,2966.062269,13.65446721,,13.78932615,,5.9,1,McDonalds,mcdonalds-harrisburg-14,36368,40.239435,-76.801938,40.242605,-76.804119,2.1,NE,Northeast,R,Right,4,Fast Food,1,FastFood,4,Fast Food,1,FastFood,771,"40.261466,-76.772755",7175610445,409
1643,187236,127,1-724-342-1644,41.226132,-80.452148,"590 South Hermitage Road, Hermitage, PA 16148-3525",590 S Hermitage Rd,Burger King,Burger King,4b8328daf964a52000fb30e3,249,1266886874,3039.7611,8.191433203,,12.89575026,,6.4,1,Burger King,burger-king-hermitage,35213,41.180382,-80.441273,41.177953,-80.440698,2.1,N,North,L,Left,4,Fast Food,1,FastFood,4,Fast Food,1,FastFood,779,"41.226132,-80.452148",7243421644,392
1649,454328,152,1-724-981-3211,41.2289,-80.45057,"150 S Hermitage Street, Sharon, PA 16146",Pennsylvania,Long John Silvers,Long john silver,4b8183ecf964a520b5ab30e3,154,1266779116,3041.008299,5.064109824,,5.984857065,,6.1,3,Long John Silvers,long-john-silvers-sharon,35213,41.180382,-80.441273,41.177953,-80.440698,2.21,N,North,L,Left,4,Fast Food,1,FastFood,4,Fast Food,1,FastFood,819,"41.2289,-80.45057",7249813211,182
1656,198002,151,1-724-347-4329,41.231726,-80.450163,"100 S. Hermitage Road, Hermitage, PA 16148",100 S Hermitage Rd,KFC,KFC,4c2b71de57a9c9b61ee4f567,329,1277915614,2912.113646,11.29763601,,14.97194317,,6.9,1,KFC,kfc-hermitage,35213,41.180382,-80.441273,41.177953,-80.440698,2.33,N,North,L,Left,4,Fast Food,1,FastFood,4,Fast Food,1,FastFood,786,"41.231726,-80.450163",7243474329,436
1671,215620,173,1-724-982-4121,41.234755,-80.449152,"120 N Hermitage Rd, Hermitage, PA 16148",120 N Hermitage Rd,Wendys,Wendy's,4b7c377ef964a52014852fe3,650,1266431870,3045.02735,21.34627789,,33.0374701,,6.7,1,Wendys,wendys-hermitage,35213,41.180382,-80.441273,41.177953,-80.440698,2.45,N,North,L,Left,4,Fast Food,1,FastFood,4,Fast Food,1,FastFood,782,"41.234755,-80.449152",7249824121,1006
1674,286797,153,1-724-342-7292,41.235485,-80.45033,"145 N. Hermitage Rd, Hermitage, PA 16148",North Hermitage Rd. (Rt. 18) (E. State Street),McDonalds,McDonalds,50145f12e4b0e259d3456c58,325,1343512338,2152.892303,15.0959711,,23.9677572,,5.5,1,McDonalds,a,35213,41.180382,-80.441273,41.177953,-80.440698,2.49,N,North,L,Left,4,Fast Food,1,FastFood,4,Fast Food,1,FastFood,771,"41.235485,-80.45033000000001",7243427292,516
1679,134310,283,1-724-983-1088,41.233913,-80.464229,"2427 E State St, Hermitage, PA 16148-2723",2427 E State St,Subway,SUBWAY,4c4f55501d76c928b4bea991,551,1280267600,2884.891586,19.09950456,,24.33367006,,7.4,1,Subway,subway-hermitage-6,35213,41.180382,-80.441273,41.177953,-80.440698,2.52,NW,Northwest,L,Left,4,Fast Food,1,FastFood,4,Fast Food,1,FastFood,3206,"41.233913,-80.464229",7249831088,702
1680,814989,121,1-724-981-5633,41.233749,-80.464939,"2415 E State St, Hermitage, PA 16148",2415 E State St,Arbys,Arby's,4c5b3d5a7735c9b6a12b8972,371,1281047898,2875.860359,12.90048729,,18.88130619,,6.4,1,Arbys,arbys-hermitage-2,35213,41.180382,-80.441273,41.177953,-80.440698,2.52,NW,Northwest,L,Left,4,Fast Food,1,FastFood,4,Fast Food,1,FastFood,790,"41.233748999999996,-80.464939",7249815633,543
1684,203487,153,1-724-981-2596,41.232822,-80.471962,"2066 E State St, Hermitage Twp, PA 16148",2066 E State St (btw Lyle Dr & SR 3025),McDonalds,McDonalds,4b5b80def964a5201e0329e3,787,1264287966,3069.841053,25.63650646,,52.38056212,,5.7,1,McDonalds,mcdonalds-hermitage,35213,41.180382,-80.441273,41.177953,-80.440698,2.56,NW,Northwest,R,Right,4,Fast Food,1,FastFood,4,Fast Food,1,FastFood,771,"41.232822,-80.471962",7249812596,1608
1687,550486,170,-,41.23326,-80.47138,"1990 East State St, Hermitage, PA 16148",1990 E State St,Taco Bell,Taco Bell,4b934dd6f964a520503f34e3,923,1267944918,3027.51522,30.4870474,,44.98738738,,5.9,1,Taco Bell,taco-bell-hermitage-2,35213,41.180382,-80.441273,41.177953,-80.440698,2.57,NW,Northwest,R,Right,4,Fast Food,1,FastFood,4,Fast Food,1,FastFood,781,"41.233259999999994,-80.47138000000001",,1362
1689,480037,1007,1-724-342-1111,41.23333,-80.47306,"1968 E State Street, Hermitage, PA 16148",1968 E State St,Little Caesars,Little Caesars Pizza,4babbaf2f964a52078c43ae3,201,1269545714,3008.987488,6.679987895,,7.377897078,,6.7,1,Little Caesars,little-caesars-pizza-hermitage,35213,41.180382,-80.441273,41.177953,-80.440698,2.6,NW,Northwest,R,Right,4,Fast Food,1,FastFood,4,Fast Food,1,FastFood,788,"41.23333,-80.47306",7243421111,222
1702,307082,283,1-724-983-1989,41.233477,-80.493172,"869 E State St, Sharon, PA 16146",869 E State St,Subway,SUBWAY,4b69c377f964a520c7b22be3,404,1265222519,3059.024468,13.20682473,,16.34508012,,7.3,1,Subway,subway-sharon-2,35213,41.180382,-80.441273,41.177953,-80.440698,2.92,NW,Northwest,R,Right,4,Fast Food,1,FastFood,4,Fast Food,1,FastFood,3206,"41.233477,-80.493172",7249831989,500
1705,307097,283,1-724-981-5358,41.24727,-80.451759,"1085 N. Hermitage Road, Hermitage, PA 16148",1085 N Hermitage Rd,Subway,SUBWAY,4bddf8466198c9b67c6c12ff,108,1272838214,2970.87985,3.635286699,,3.769926947,,6.6,1,Subway,subway-hermitage-2,35213,41.180382,-80.441273,41.177953,-80.440698,3,N,North,L,Left,4,Fast Food,1,FastFood,4,Fast Food,1,FastFood,3206,"41.24727,-80.451759",7249815358,112
1714,306984,283,1-724-654-9808,41.056764,-80.356098,"3340 Wilmington Rd, New Castle, PA 16101","New Castle, PA 16105",Subway,SUBWAY,4c65bbd49cb82d7fd8b68ed2,94,1281735636,2867.900428,3.277659122,,6.764530529,,6.8,1,Subway,subway-new-castle-10,35216,,,,,0.85,SE,Southeast,L,Left,4,Fast Food,1,FastFood,4,Fast Food,1,FastFood,3206,"41.056764,-80.356098",7246549808,194
1715,814787,121,1-724-654-8896,41.053988,-80.356756,"3224 Wilmington Rd, New Castle, PA 16105",3224 Wilmington Rd,Arbys,Arby's,4d5ad3fa916dbfc96a1560b9,220,1297798138,2681.99184,8.202858663,,11.93143078,,6.3,1,Arbys,arbys-new-castle-5,35216,,,,,0.9,SE,Southeast,L,Left,4,Fast Food,1,FastFood,4,Fast Food,1,FastFood,790,"41.053988000000004,-80.356756",7246548896,320
1716,214975,173,1-724-658-1333,41.053042,-80.35643,"3218 Wilmington Rd, New Castle, PA 16105",3218 Wilmington Rd,Wendys,Wendy's,4b81c832f964a520bebd30e3,307,1266796594,3040.806007,10.09600742,,13.05574901,,7,1,Wendys,wendys-new-castle-3,35216,,,,,0.94,SE,Southeast,L,Left,4,Fast Food,1,FastFood,4,Fast Food,1,FastFood,782,"41.053042,-80.35643",7246581333,397
1741,198236,151,1-724-498-4680,41.025696,-80.354275,"2407 Wilmington Road, New Castle, PA 16105",2407 Wilmington Rd,KFC,KFC,50c53c60e4b02d3a86e3b653,84,1355103328,2018.737326,4.161016835,,9.758575196,,6,1,KFC,kfc-new-castle-4,35218,,,,,1.16,E,East,L,Left,4,Fast Food,1,FastFood,4,Fast Food,1,FastFood,786,"41.025696,-80.354275",7244984680,197
1744,286775,153,1-724-652-6554,41.027604,-80.353293,"2424 Wilmington Rd, New Castle, PA 16105",2424 Wilmington Rd,McDonalds,McDonald's,4bb64e5f941ad13ad9371fe3,1115,1270238815,3000.965486,37.15470921,,59.84740605,,5.3,1,McDonalds,mcdonalds-new-castle,35218,,,,,1.19,E,East,L,Left,4,Fast Food,1,FastFood,4,Fast Food,1,FastFood,771,"41.027604,-80.35329300000001",7246526554,1796
1747,306974,283,1-724-654-6080,41.027083,-80.353169,"2418 Wilmington Rd, New Castle, PA 16105-1957",2398 Wilmington Rd,Subway,SUBWAY,4c7934513badb1f7f7224e54,276,1283011665,2853.131574,9.673581215,,11.42604158,,6.8,1,Subway,subway-new-castle-6,35218,,,,,1.2,E,East,L,Left,4,Fast Food,1,FastFood,4,Fast Food,1,FastFood,3206,"41.027083000000005,-80.353169",7246546080,326
1754,549550,170,-,41.02562,-80.35394,"2407 Wilmington Rd, New Castle, PA 16105",2407 Wilmington Rd,Taco Bell,Taco Bell,4c5b2d76d25320a17ce8bf7a,379,1281043830,2875.907442,13.17844915,,18.04647787,,5.1,1,Taco Bell,taco-bell-new-castle-4,35218,,,,,1.89,E,East,L,Left,4,Fast Food,1,FastFood,4,Fast Food,1,FastFood,781,"41.02562,-80.35394000000001",,519
1759,203143,153,1-724-657-9982,41.011194,-80.39401,"2537 West State St, New Castle, PA 16101",2537 W State St,McDonalds,McDonald's,4c1331298aedd13a5e6e5137,691,1276326185,2930.509815,23.57951495,,40.70964014,,5.8,1,McDonalds,mcdonalds-new-castle-7,35219,,,,,0.04,S,South,R,Right,4,Fast Food,1,FastFood,4,Fast Food,1,FastFood,771,"41.011194,-80.39401",7246579982,1193
1760,814789,121,1-724-657-0667,41.011627,-80.395031,"2539 W State St, New Castle, PA 16101",2539 W State St,Arbys,Arby's,4d5ad422916dbfc98e5760b9,239,1297798178,2681.991377,8.911288904,,11.63314702,,6,1,Arbys,arbys-new-castle-6,35219,,,,,0.04,W,West,R,Right,4,Fast Food,1,FastFood,4,Fast Food,1,FastFood,790,"41.011627000000004,-80.395031",7246570667,312
1764,215582,173,1-724-658-7544,41.013322,-80.395595,"2590 W State St, New Castle, PA 16101",2590 W State Street,Wendys,Wendy's,4bf9b432b182c9b67769795a,610,1274655794,2949.843044,20.67906634,,26.78108592,,6.4,1,Wendys,wendys-new-castle-4,35219,,,,,0.08,NW,Northwest,R,Right,4,Fast Food,1,FastFood,4,Fast Food,1,FastFood,782,"41.013321999999995,-80.395595",7246587544,790
1777,306956,283,1-724-654-9917,41.006388,-80.378232,"1909 W State St, New Castle, PA 16101",W State St.,Subway,SUBWAY,4deaa33722713dd97399a688,136,1307222839,2572.909653,5.285844369,,5.519043385,,6.5,1,Subway,subway-new-castle-8,35219,,,,,0.56,E,East,L,Left,4,Fast Food,1,FastFood,4,Fast Food,1,FastFood,3206,"41.006388,-80.378232",7246549917,142
1792,306952,283,1-724-654-1300,41.000162,-80.346345,"19 E Washington Street, New Castle, PA 16101",19 E Washington St,Subway,SUBWAY,4c812db974d7b60c071f74d8,82,1283534265,2847.082963,2.880140869,,3.406995906,,6.7,1,Subway,subway-new-castle-4,35219,,,,,1.62,E,East,L,Left,4,Fast Food,1,FastFood,4,Fast Food,1,FastFood,3206,"41.000161999999996,-80.346345",7246541300,97
1814,479048,1007,1-724-598-7904,41.0088,-80.34811,"704 Wilmington Ave, New Castle, PA 16101",704 Wilmington Ave,Little Caesars,Little Caesars Pizza,4b929ec1f964a5208a0a34e3,140,1267900097,3028.033981,4.623461984,,11.16235822,,6.6,1,Little Caesars,little-caesars-pizza-new-castle,35219,,,,,2.4,E,East,L,Left,4,Fast Food,1,FastFood,4,Fast Food,1,FastFood,788,"41.0088,-80.34810999999999",7245987904,338
1823,306950,283,1-724-654-9252,40.989271,-80.319762,"1200 Butler Ave, New Castle, PA 16101",1200 Butler Ave,Subway,SUBWAY,4c431ae5cc410f4720afad61,222,1279466213,2894.166898,7.670601172,,13.23351463,,6.2,1,Subway,subway-new-castle-7,35219,,,,,2.59,E,East,L,Left,4,Fast Food,1,FastFood,4,Fast Food,1,FastFood,3206,"40.989271,-80.319762",7246549252,383
1832,1155670,283,1-724-667-3218,40.962414,-80.436393,"1001 Mt. Jackson, New Castle, PA 16102",1001 Mount Jackson Rd,Subway,Subway,560b6a31498e844af0be4a67,4,1443588657,994.6015741,0.402171091,,6.133109135,,6.6,1,Subway,a,35221,,,,,1.17,W,West,R,Right,4,Fast Food,1,FastFood,4,Fast Food,1,FastFood,3206,"40.962414,-80.43639300000001",7246673218,61
1852,202197,153,1-724-652-1466,40.970082,-80.311877,"2509 Elwood Rd, New Castle, PA 16101",2509 Ellwood Rd,McDonalds,McDonald's,4c83d5e5dc018cfa71e8db6c,1099,1283708389,2845.067639,38.62825562,,63.79461687,,6.3,1,McDonalds,mcdonalds-new-castle-2,35221,,,,,2.91,E,East,L,Left,4,Fast Food,1,FastFood,4,Fast Food,1,FastFood,771,"40.970082,-80.311877",7246521466,1815
1853,306938,283,1-724-654-2250,40.968301,-80.310097,"2609 Ellwood Road, New Castle, PA 16101",2614 Ellwood Rd,Subway,SUBWAY,4c9bbc1fd3c2b60ccc6ab1bc,214,1285274655,2826.93956,7.570023888,,8.029885152,,6.5,1,Subway,subway-new-castle-14,35221,,,,,2.97,E,East,L,Left,4,Fast Food,1,FastFood,4,Fast Food,1,FastFood,3206,"40.968301000000004,-80.310097",7246542250,227
1858,224108,283,1-724-846-4990,40.782259,-80.383787,"100 Chippewa Town Center, Beaver Falls, PA 15010",in Walmart,Subway,SUBWAY,4eac9d39d3e32ee0de05ded9,113,1319935289,2425.774815,4.658305433,,4.658305433,,6.6,1,Subway,subway-beaver-falls-2,35224,,,,,0.88,SW,Southwest,R,Right,4,Fast Food,1,FastFood,4,Fast Food,1,FastFood,3206,"40.782259,-80.383787",7248464990,113
1864,202571,153,1-724-846-9617,40.772792,-80.372997,"2546 Constitution Blvd, Beaver Falls, PA 15010",2546 Constitution Blvd (Darlington Rd.),McDonalds,McDonald's,4bcf1d46fb84c9b618d3243e,1238,1271864646,2982.147998,41.51370089,,63.34360338,,6.8,1,McDonalds,mcdonalds-beaver-falls-4,35225,,,,,0.45,NW,Northwest,R,Right,4,Fast Food,1,FastFood,4,Fast Food,1,FastFood,771,"40.772791999999995,-80.372997",7248469617,1889
1878,198506,151,1-724-843-9797,40.776542,-80.380368,"2666 Constitution Boulevard, Beaver Falls, PA 15010",2666 Constitution Blvd,KFC,KFC/Taco Bell,4f9f0bc1e4b030992c29b4e7,313,1335823297,2241.885833,13.96146027,,29.03805316,,6.7,1,KFC,kfc-beaver-falls,35225,,,,,0.74,NW,Northwest,R,Right,4,Fast Food,1,FastFood,4,Fast Food,1,FastFood,786,"40.776542,-80.380368",7248439797,651
1883,215017,173,1-724-843-3391,40.778323,-80.383708,"700 Chippewa Town Ctr, Beaver Falls, PA 15010",700 Chippewa Town Ctr,Wendys,Wendy's,4bedd6c5e24d20a1d9157214,507,1273878213,2958.842824,17.13507713,,29.06541682,,7,1,Wendys,wendys-beaver-falls,35225,,,,,0.87,NW,Northwest,R,Right,4,Fast Food,1,FastFood,4,Fast Food,1,FastFood,782,"40.778323,-80.383708",7248433391,860
1884,5305,127,1-724-846-2111,40.773802,-80.374671,"720 Shenango Road, Beaver Falls, PA 15010-1212",720 Shenango Rd,Burger King,Burger King,4c55af95fd2ea593d7512b2c,631,1280683925,2880.073009,21.90916682,,33.78386579,,6.2,1,Burger King,burger-king-beaver-falls,35225,,,,,0.9,NW,Northwest,R,Right,4,Fast Food,1,FastFood,4,Fast Food,1,FastFood,779,"40.773802,-80.37467099999999",7248462111,973
1894,224173,283,1-724-843-4990,40.7587,-80.319681,"1801 7th Ave, Beaver Falls, PA 15010-4053",1801 7th Ave,Subway,SUBWAY,4cc6f9babe40a35d05358d4c,313,1288108474,2794.140729,11.20201272,,13.17041752,,6.6,1,Subway,subway-beaver-falls-4,35225,,,,,1.45,E,East,L,Left,4,Fast Food,1,FastFood,4,Fast Food,1,FastFood,3206,"40.7587,-80.319681",7248434990,368
1895,202602,153,1-724-846-9180,40.757652,-80.3197,"1625 7th Ave, Beaver Falls, PA 15010",1625 7th Ave (at 17th St),McDonalds,McDonald's,4bbb3b0e7421a593308ec440,1553,1270561550,2997.230127,51.81450653,,71.43261975,,6.1,1,McDonalds,mcdonalds-beaver-falls-2,35225,,,,,1.46,E,East,L,Left,4,Fast Food,1,FastFood,4,Fast Food,1,FastFood,771,"40.757652,-80.3197",7248469180,2141
1910,224496,283,1-724-709-8764,40.705218,-80.403976,"4905 Tuscarawas Road, Beaver, PA 15009",4905 Tuscarawas Rd,Subway,SUBWAY,4e159b80091a211206311097,92,1310038912,2540.316215,3.621596376,,5.589855277,,6.7,1,Subway,subway-beaver-6,35226,,,,,1.25,W,West,R,Right,4,Fast Food,1,FastFood,4,Fast Food,1,FastFood,3206,"40.705218,-80.403976",7247098764,142
1918,224302,283,1-724-843-7890,40.73056,-80.310225,"1228 3rd Ave, New Brighton, PA 15066",1228 3rd Ave,Subway,Subway,4c7565d3d8948cfab89567da,258,1282762195,2856.018958,9.03355348,,12.46490325,,6.1,1,Subway,subway-new-brighton,35226,,,,,2.22,NE,Northeast,L,Left,4,Fast Food,1,FastFood,4,Fast Food,1,FastFood,3206,"40.73056,-80.310225",7248437890,356
1930,476676,1007,1-724-774-7382,40.68841,-80.31996,"1701 Third Street, Beaver, PA 15009",1617 3rd St,Little Caesars,Little Ceasars Pizza,4bdf158a6198c9b68ee515ff,221,1272911242,2970.034618,7.44099071,,7.946035328,,6.7,1,Little Caesars,bruceton-farm-services-beaver,35227,,,,,0.55,E,East,L,Left,4,Fast Food,1,FastFood,4,Fast Food,1,FastFood,788,"40.68841,-80.31996",7247747382,236
1931,306551,283,1-724-728-4929,40.688484,-80.319787,"1701 3rd St, Beaver, PA 15009",1701 3rd St,Subway,SUBWAY,4e4dee83bd41b76bef958b7b,309,1313730179,2497.593218,12.3719106,,12.77229605,,6.2,1,Subway,subway-beaver-4,35227,,,,,0.56,E,East,L,Left,4,Fast Food,1,FastFood,4,Fast Food,1,FastFood,3206,"40.688484,-80.319787",7247284929,319
1932,202666,153,1-724-775-8085,40.689176,-80.319985,"190 State St, Beaver, PA 15009",190 State Ave,McDonalds,McDonald's,4b47c103f964a520423d26e3,1048,1262993667,3084.821366,33.97279375,,60.78147736,,6.2,1,McDonalds,mcdonalds-beaver,35227,,,,,0.57,NE,Northeast,L,Left,4,Fast Food,1,FastFood,4,Fast Food,1,FastFood,771,"40.689176,-80.319985",7247758085,1875
1933,162435,173,1-724-774-6342,40.688733,-80.31927,"1635 3rd St, Beaver, PA 15009",1635 3rd St (Chestnut St),Wendys,Wendy's,4ae87675f964a5208faf21e3,607,1256748661,3157.101528,19.22649603,,41.68380359,,6.6,1,Wendys,wendys-beaver,35227,,,,,0.58,NE,Northeast,L,Left,4,Fast Food,1,FastFood,4,Fast Food,1,FastFood,782,"40.688733,-80.31926999999999",7247746342,1316
1976,411554,283,1-724-709-7873,40.70369,-80.279692,"423 Adam Street, Rochester, PA 15074","Rochester, PA",Subway,Subway,5713a572498e6940a4ba4836,21,1460905330,794.1771181,2.644246418,,4.910743348,,6.6,1,Subway,a,35227,,,,,2.02,E,East,L,Left,4,Fast Food,1,FastFood,4,Fast Food,1,FastFood,3206,"40.70369,-80.279692",7247097873,39
1982,453226,152,1-724-728-1170,40.69894,-80.27302,"750 Ohio River Blvd., Rochester, PA 15074",750 Ohio River Blvd (PA 65),Long John Silvers,A&W / Long John Silver's,4b9d34f4f964a5207b9936e3,419,1268593908,3020.003762,13.8741549,,25.86089494,,5.7,2,Long John Silvers,long-john-silvers-east-rochester,35227,,,,,2.14,E,East,L,Left,4,Fast Food,1,FastFood,4,Fast Food,1,FastFood,819,"40.69894,-80.27301999999999",7247281170,781
1989,190772,127,1-724-728-2055,40.6712,-80.313262,"Beaver Valley Mall, Monaca, PA 15061-2318",Beaver Valley Mall (Beaver Valley Mall),Burger King,Burger King,4bd8c63d2e6f0f472e8c0808,730,1272497725,2974.820694,24.53929413,,39.49817891,,4.9,1,Burger King,burger-king-restaurant-monaca,35228,,,,,0.48,E,East,L,Left,4,Fast Food,1,FastFood,4,Fast Food,1,FastFood,779,"40.6712,-80.313262",7247282055,1175
1990,814638,121,1-724-728-8471,40.671195,-80.312716,"820 Beaver Valley Mall, Monaca, PA 15061",820 Beaver Valley Mall,Arbys,Arby's,4bbf9486461576b037cc7832,637,1270846598,2993.930961,21.27637572,,31.02943963,,7.9,1,Arbys,arbys-monaca,35228,,,,,0.49,E,East,L,Left,4,Fast Food,1,FastFood,4,Fast Food,1,FastFood,790,"40.671195000000004,-80.31271600000001",7247288471,929
1995,306518,283,1-724-775-9176,40.674364,-80.313386,"565 Beaver Valley Mall, Monaca, PA 15061",565 Beaver Valley Mall,Subway,SUBWAY,4e4dee86bd41b76bef958bba,226,1313730182,2497.593183,9.048711437,,10.16979073,,7,1,Subway,subway-monaca,35228,,,,,0.52,NE,Northeast,L,Left,4,Fast Food,1,FastFood,4,Fast Food,1,FastFood,3206,"40.674364000000004,-80.313386",7247759176,254
2007,162417,173,1-724-774-4780,40.674603,-80.310028,"111 Golfview Dr, Monaca, PA 15061",111 Golfview Dr,Wendys,Wendy's,4bd49a2a637ba593f70af570,577,1272224298,2977.985359,19.375515,,36.76982483,,6.5,1,Wendys,wendys-monaca,35228,,,,,0.63,E,East,L,Left,4,Fast Food,1,FastFood,4,Fast Food,1,FastFood,782,"40.674603000000005,-80.310028",7247744780,1095
2018,547620,170,-,40.67933,-80.30221,"3948 Brodhead Rd, Monaca, PA 15061",3948 Brodhead Rd (Wagner road),Taco Bell,Taco Bell,4adcf974f964a520146321e3,1310,1255995764,3165.815613,41.37954196,,59.98454212,,5.4,1,Taco Bell,taco-bell-monaca,35228,,,,,0.95,NE,Northeast,L,Left,4,Fast Food,1,FastFood,4,Fast Food,1,FastFood,781,"40.67933,-80.30221",,1899
2019,306538,283,1-724-728-9430,40.683133,-80.304191,"113 Wagner Rd, Monaca, PA 15061",115 Wagner Rd (at Lowe's),Subway,SUBWAY,4c3ced524bc9a593b55ad371,217,1279061330,2898.853044,7.485719238,,8.658596907,,6.7,1,Subway,subway-monaca-2,35228,,,,,0.99,NE,Northeast,L,Left,4,Fast Food,1,FastFood,4,Fast Food,1,FastFood,3206,"40.683133000000005,-80.304191",7247289430,251
2020,203396,153,1-724-774-7184,40.68059,-80.30149,"3946 Broadhead Rd, Monaca, PA 15061",3946 Brodhead Rd (Wal*Mart Plaza),McDonalds,McDonald's,4b4bb176f964a5204ea426e3,2259,1263251830,3081.833368,73.30052375,,86.37715548,,5.6,1,McDonalds,mcdonalds-monaca-3,35228,,,,,0.99,NE,Northeast,L,Left,4,Fast Food,1,FastFood,4,Fast Food,1,FastFood,771,"40.68059,-80.30149",7247747184,2662
2030,1172276,130,1-724-774-4283,40.674423,-80.313384,"544 Beaver Valley Mall, Monaca, PA 15061",544 Beaver Valley Mall,Chick-Fil-A,Chick-fil-A,4be2f1ddd27a20a1c0c2905b,401,1273164253,2967.10625,13.51485138,,16.21108108,,7.2,1,Chick-Fil-A,chick-fil-a-monaca,35228,,,,,1.22,NE,Northeast,L,Left,4,Fast Food,1,FastFood,4,Fast Food,1,FastFood,796,"40.674423,-80.313384",7247744283,481
2031,1210201,241,1-724-888-2958,40.675893,-80.311047,"202 Golfview Drive, Monaca, PA 15061",,Jimmy Johns,,56eebf0f498edb1cef2c664b,46,1458487055,822.166412,5.594974366,,6.324753631,,7.1,1,Jimmy Johns,a,35228,,,,,1.3,NE,Northeast,L,Left,4,Fast Food,1,FastFood,4,Fast Food,1,FastFood,798,"40.675893,-80.311047",7248882958,52
2050,286551,153,1-724-378-0622,40.634379,-80.317654,"131 Pleasant Dr, Aliquippa, PA 15001",131 Pleasant Dr,McDonalds,McDonald's,4b2122faf964a520383724e3,579,1260462842,3114.113322,18.59277233,,36.63964288,,7,1,McDonalds,mcdonalds-aliquippa,35229,,,,,0.15,SE,Southeast,L,Left,4,Fast Food,1,FastFood,4,Fast Food,1,FastFood,771,"40.634378999999996,-80.317654",7243780622,1141
2061,815776,121,1-724-869-3620,40.657875,-80.238261,"900 First Ave, Conway, PA 15027",900 First Ave,Arbys,Arby's,4b2981d9f964a5200ea024e3,331,1261011417,3107.764074,10.65074414,,14.09373394,,6.9,1,Arbys,arbys-conway-5,35229,,,,,2.84,E,East,L,Left,4,Fast Food,1,FastFood,4,Fast Food,1,FastFood,790,"40.657875,-80.238261",7248693620,438
2063,190796,127,1-724-869-1174,40.656294,-80.23725,"1690 Beaver Road, Baden, PA 15005-0000",1690 Beaver Rd,Burger King,Burger King,4c13bec7a9c220a14c43569d,620,1276362439,2930.090208,21.15975809,,32.01266628,,5,1,Burger King,burger-king-baden-2,35229,,,,,2.85,E,East,L,Left,4,Fast Food,1,FastFood,4,Fast Food,1,FastFood,779,"40.656294,-80.23725",7248691174,938
2079,411521,158,1-724-378-3800,40.6056,-80.2818,"2671 Brodhead Road, Aliquippa, PA 15001",2671 Brodhead Rd,Papa Johns Pizza,Papa John's Pizza,4b9431cbf964a520f36d34e3,50,1268003275,3026.839792,1.651887891,,1.684925649,,5.9,1,Papa Johns Pizza,papa-johns-aliquippa,35230,,,,,0.66,E,East,L,Left,4,Fast Food,1,FastFood,4,Fast Food,1,FastFood,791,"40.6056,-80.2818",7243783800,51
2082,306417,283,1-724-375-8090,40.606838,-80.28239,"2693 Brodhead Rd, Aliquippa, PA 15001",833 S Brodhead Rd.,Subway,SUBWAY,4baa405cf964a520c5573ae3,425,1269448796,3010.109225,14.11908899,,29.00226985,,7.3,1,Subway,subway-aliquippa,35230,,,,,0.67,E,East,L,Left,4,Fast Food,1,FastFood,4,Fast Food,1,FastFood,3206,"40.606838,-80.28239",7243758090,873
2089,814636,121,1-724-378-5660,40.601781,-80.277369,"2605 Brodhead Rd, Aliquippa, PA 15001",2605 Brodhead Rd,Arbys,Arby's,4b33c17ef964a520921e25e3,267,1261683070,3099.990313,8.612930141,,22.3226504,,6,1,Arbys,arbys-aliquippa,35230,,,,,0.77,E,East,L,Left,4,Fast Food,1,FastFood,4,Fast Food,1,FastFood,790,"40.601781,-80.277369",7243785660,692
2096,162453,173,1-724-375-5410,40.609205,-80.283966,"2719 Brodhead Rd, Aliquippa, PA 15001",2719 Brodhead Rd,Wendys,Wendy's,4bfec154daf9c9b68534f9ef,515,1274986836,2946.011539,17.48126214,,43.78801586,,6.5,1,Wendys,wendys-aliquippa-5,35230,,,,,1.08,NE,Northeast,L,Left,4,Fast Food,1,FastFood,4,Fast Food,1,FastFood,782,"40.609204999999996,-80.283966",7243755410,1290
2126,202460,153,1-724-869-2927,40.633323,-80.229784,"300 Ohio River Blvd, Baden, PA 15005",300 Ohio River Blvd,McDonalds,McDonalds,4b38e1e4f964a520a95125e3,1084,1262019044,3096.101725,35.01176952,,60.33393493,,6.3,1,McDonalds,mcdonalds-baden,35230,,,,,2.72,NE,Northeast,L,Left,4,Fast Food,1,FastFood,4,Fast Food,1,FastFood,771,"40.633323,-80.229784",7248692927,1868
2127,223849,283,1-724-869-2202,40.635427,-80.227936,"380 State St, Baden, PA 15005",382 State St,Subway,SUBWAY,4c8181bcd34ca14301472380,170,1283555772,2846.834039,5.971545852,,7.763009608,,6.5,1,Subway,subway-baden,35230,,,,,2.82,NE,Northeast,L,Left,4,Fast Food,1,FastFood,4,Fast Food,1,FastFood,3206,"40.635427,-80.227936",7248692202,221
2131,306367,283,1-724-378-5190,40.569971,-80.257776,"2049 Brodhead Rd., Aliquippa, PA 15001",2049 Brodhead Rd,Subway,SUBWAY,4c7d3ab2b53db1f7af739c11,136,1283275442,2850.0786,4.771798224,,6.631396062,,7,1,Subway,subway-aliquippa-3,35231,,,,,0.96,NE,Northeast,L,Left,4,Fast Food,1,FastFood,4,Fast Food,1,FastFood,3206,"40.569971,-80.257776",7243785190,189
